City_ID,City,Country,Lat,Lng,Max Temp,Humidity,Cloudiness,Wind Speed,Current Description
0,Souillac,MU,-20.52,57.52,73.4,73,20,12.75,few clouds
1,Mogadishu,SO,2.04,45.34,80.64,82,56,12.62,broken clouds
2,Chokurdakh,RU,70.63,147.92,-16.76,90,68,3.0,broken clouds
3,Atuona,PF,-9.8,-139.03,77.22,74,15,13.29,few clouds
4,Shieli,KZ,44.17,66.75,42.91,61,98,9.06,overcast clouds
5,Avarua,CK,-21.21,-159.78,69.8,100,67,10.4,light rain
6,Nikolskoye,RU,59.7,30.79,42.8,75,75,17.9,broken clouds
7,Provideniya,RU,64.38,-173.3,32.4,97,100,38.65,overcast clouds
8,Albany,US,42.6,-73.97,64.0,66,20,0.92,few clouds
9,Hobart,AU,-42.88,147.33,55.4,71,98,8.05,overcast clouds
10,Rikitea,PF,-23.12,-134.97,73.74,76,53,17.67,light rain
11,Mataura,NZ,-46.19,168.86,37.15,95,2,1.97,clear sky
12,Constitucion,CL,-35.33,-72.42,67.33,48,68,15.75,broken clouds
13,Carnarvon,AU,-24.87,113.63,66.2,68,75,23.04,broken clouds
14,Rewa,IN,24.53,81.3,65.86,28,0,2.3,clear sky
15,Bulgan,MN,48.81,103.53,32.11,84,0,3.56,clear sky
16,Cockburn Town,TC,21.46,-71.14,81.63,82,100,17.56,overcast clouds
17,Akyab,MM,20.15,92.9,79.09,79,0,5.68,clear sky
18,Dikson,RU,73.51,80.55,5.32,94,100,9.37,overcast clouds
19,Mahebourg,MU,-20.41,57.7,73.4,73,20,12.75,few clouds
20,Zhuhai,CN,22.28,113.57,75.2,73,0,8.05,clear sky
21,Busselton,AU,-33.65,115.33,54.0,69,57,18.63,broken clouds
22,Tiksi,RU,71.69,128.87,-8.86,87,0,6.67,clear sky
23,Komsomolskiy,UZ,40.43,71.72,41.0,80,40,2.24,scattered clouds
24,Hami,CN,42.8,93.45,38.75,61,17,4.72,few clouds
25,Waterloo,CA,43.47,-80.52,66.99,52,1,4.7,clear sky
26,Vilhena,BR,-12.74,-60.15,78.8,74,75,6.93,broken clouds
27,Butaritari,KI,3.07,172.79,81.59,74,38,12.57,scattered clouds
28,Bonavista,CA,48.65,-53.11,37.0,75,96,6.93,overcast clouds
29,Pokaran,IN,26.92,71.92,76.05,19,0,4.72,very heavy rain
30,Flin Flon,CA,54.77,-101.86,10.4,78,75,18.34,light snow
31,Ilulissat,GL,69.22,-51.1,15.8,72,75,4.7,broken clouds
32,Vaini,TO,-21.2,-175.2,69.8,94,40,4.7,scattered clouds
33,Labuan,MY,5.28,115.24,80.6,83,20,5.82,few clouds
34,Vestmannaeyjar,IS,63.44,-20.27,46.4,93,90,23.04,overcast clouds
35,Khatanga,RU,71.97,102.5,23.04,97,100,12.41,light snow
36,Ushuaia,AR,-54.8,-68.3,51.8,20,0,16.11,clear sky
37,Bluff,NZ,-46.6,168.33,45.1,84,2,6.62,clear sky
38,Urumqi,CN,43.8,87.6,42.8,41,0,4.47,clear sky
39,Ternate,ID,0.8,127.4,80.55,77,68,3.94,broken clouds
40,Dingle,PH,11.0,122.67,75.43,88,100,4.09,overcast clouds
41,Mackay,AU,-21.15,149.2,71.6,73,40,12.75,scattered clouds
42,Oranjemund,NA,-28.55,16.43,60.01,59,0,29.84,clear sky
43,Sao Filipe,CV,14.9,-24.5,82.04,69,32,7.05,scattered clouds
44,North Bend,US,43.41,-124.22,41.0,66,1,10.29,clear sky
45,East London,ZA,-33.02,27.91,57.2,93,75,16.11,light rain
46,Sorland,NO,67.67,12.69,37.4,64,75,11.41,broken clouds
47,Cayenne,GF,4.93,-52.33,89.6,55,0,10.29,clear sky
48,Harper,LR,4.38,-7.72,80.96,79,68,8.1,light rain
49,Clyde River,CA,70.47,-68.59,-0.4,70,40,14.99,scattered clouds
50,Yellowknife,CA,62.46,-114.35,28.4,79,75,4.7,broken clouds
51,Zharkent,KZ,44.16,80.0,38.19,75,0,6.53,clear sky
52,Rabo De Peixe,PT,37.8,-25.58,66.2,63,75,13.87,broken clouds
53,Klamath Falls,US,42.22,-121.78,27.0,68,1,3.36,clear sky
54,Deputatskiy,RU,69.3,139.9,-18.44,89,0,2.53,clear sky
55,Kutahya,TR,39.42,29.98,48.2,70,0,4.7,clear sky
56,Srednekolymsk,RU,67.45,153.68,-8.75,91,100,4.43,overcast clouds
57,Talnakh,RU,69.49,88.4,15.8,92,40,8.95,light snow
58,Qaanaaq,GL,77.48,-69.36,-6.52,70,0,7.27,clear sky
59,El Alto,PE,-4.27,-81.21,78.8,57,0,10.29,clear sky
60,Bethel,US,41.37,-73.41,72.0,42,1,3.58,clear sky
61,Pevek,RU,69.7,170.31,18.23,93,99,7.18,overcast clouds
62,Arraial Do Cabo,BR,-22.97,-42.03,84.2,78,40,13.87,scattered clouds
63,Astana,KZ,51.18,71.45,35.6,93,90,22.37,light rain
64,Mehamn,NO,71.04,27.85,35.6,74,75,19.46,broken clouds
65,Coihaique,CL,-45.58,-72.07,68.0,37,0,6.93,clear sky
66,Cape Town,ZA,-33.93,18.42,62.01,48,20,19.46,few clouds
67,Arouca,TT,10.63,-61.33,87.01,70,40,9.17,shower rain
68,Kaeo,NZ,-35.1,173.78,52.0,95,96,3.0,light rain
69,Egvekinot,RU,66.32,-179.17,20.07,97,100,16.2,light snow
70,Esmeralda,CU,21.85,-78.12,84.2,74,75,13.87,heavy intensity rain
71,Vila,PT,42.03,-8.16,55.99,87,44,4.0,scattered clouds
72,Mikuni,JP,36.22,136.15,46.4,87,75,5.82,broken clouds
73,Ribeira Grande,PT,38.52,-28.7,66.2,82,75,24.16,broken clouds
74,Novo Horizonte,BR,-21.47,-49.22,96.58,28,39,7.81,moderate rain
75,Husavik,IS,66.04,-17.34,33.8,82,0,4.7,clear sky
76,Hermanus,ZA,-34.42,19.23,60.01,59,17,8.01,few clouds
77,Victor Harbor,AU,-35.57,138.62,73.0,34,7,1.01,clear sky
78,Bengkulu,ID,-3.8,102.27,76.03,82,100,4.18,light rain
79,Poum,NC,-20.23,164.02,74.17,78,91,13.8,light rain
80,Zhigansk,RU,66.77,123.37,-12.21,88,79,19.17,broken clouds
81,Sobolevo,RU,54.43,31.9,33.93,89,29,7.99,scattered clouds
82,Puerto Ayora,EC,-0.74,-90.35,71.6,73,75,14.99,broken clouds
83,Otane,NZ,-39.88,176.63,46.99,95,76,2.37,broken clouds
84,Saint-Philippe,RE,-21.36,55.77,75.2,73,0,10.29,clear sky
85,Antalaha,MG,-14.9,50.28,73.36,87,30,7.43,scattered clouds
86,Kaitangata,NZ,-46.28,169.85,41.09,92,4,1.41,clear sky
87,Kapaa,US,22.08,-159.32,78.8,78,20,18.34,few clouds
88,Chunskiy,RU,56.08,99.63,35.2,95,100,5.93,moderate rain
89,Tevaitoa,PF,-16.78,-151.5,79.18,79,100,16.69,light rain
90,Korla,CN,41.76,86.15,43.59,51,95,7.14,overcast clouds
91,Colares,PT,38.8,-9.45,66.2,72,40,6.93,scattered clouds
92,Mar Del Plata,AR,-38.0,-57.56,69.8,73,75,14.99,broken clouds
93,Bibiani,GH,6.46,-2.32,82.71,68,94,1.63,light rain
94,Santiago Del Estero,AR,-27.8,-64.26,81.0,58,94,3.0,overcast clouds
95,Bambous Virieux,MU,-20.34,57.76,73.99,73,20,12.75,few clouds
96,Tuktoyaktuk,CA,69.45,-133.04,-2.2,84,90,12.75,overcast clouds
97,Itarema,BR,-2.92,-39.92,89.01,53,12,19.82,few clouds
98,Punta Arenas,CL,-53.15,-70.92,42.8,87,90,14.99,light rain
99,Suraabad,AZ,40.82,49.47,51.8,93,0,6.93,clear sky
100,Smithers,CA,54.78,-127.17,28.4,92,90,2.24,light snow
101,Kaspiyskiy,RU,45.39,47.37,52.63,68,75,6.51,broken clouds
102,Norman Wells,CA,65.28,-126.83,21.2,85,90,13.87,overcast clouds
103,Saint George,US,37.1,-113.58,41.0,64,90,4.7,overcast clouds
104,Tasiilaq,GL,65.61,-37.64,32.27,96,100,45.63,overcast clouds
105,Nykoping,SE,58.75,17.01,41.0,86,75,4.7,broken clouds
106,Jamestown,US,42.1,-79.24,69.01,48,1,4.7,clear sky
107,Campbeltown,GB,55.43,-5.61,53.6,93,75,17.22,broken clouds
108,Port Elizabeth,ZA,-33.92,25.57,60.8,59,0,11.41,clear sky
109,Tokat,TR,40.42,36.58,46.24,64,2,2.1,clear sky
110,New Norfolk,AU,-42.78,147.06,55.0,63,92,1.01,overcast clouds
111,Naze,JP,28.37,129.48,68.0,60,0,13.87,clear sky
112,Coruripe,BR,-10.13,-36.18,82.6,67,37,14.67,scattered clouds
113,Rio Grande City,US,26.38,-98.82,82.99,68,2,3.0,clear sky
114,Walvis Bay,NA,-22.96,14.51,63.0,74,0,10.0,clear sky
115,Hilo,US,19.73,-155.09,71.6,83,90,6.93,light rain
116,Matara,LK,5.95,80.54,79.66,79,100,2.35,moderate rain
117,Lompoc,US,34.64,-120.46,44.6,93,1,8.93,clear sky
118,Nizwa,OM,22.93,57.53,75.47,49,30,3.04,scattered clouds
119,Bambanglipuro,ID,-7.95,110.28,78.55,85,92,5.95,overcast clouds
120,Bermejo,AR,-32.88,-68.8,82.4,34,0,8.05,clear sky
121,Bilma,NE,18.69,12.92,75.42,26,0,7.43,clear sky
122,Altamont,US,42.21,-121.74,27.0,68,1,3.36,clear sky
123,Carnot,CF,4.94,15.87,77.22,57,79,3.94,broken clouds
124,Cavalcante,BR,-13.8,-47.46,86.47,44,67,5.75,broken clouds
125,Praia,CV,14.92,-23.51,84.2,62,0,23.04,clear sky
126,Prieska,ZA,-29.66,22.75,77.74,17,47,10.4,scattered clouds
127,Chernyshevskiy,RU,63.01,112.47,33.78,95,100,11.92,overcast clouds
128,Miyang,CN,24.4,103.44,50.5,82,0,2.98,clear sky
129,Channel-Port Aux Basques,CA,47.57,-59.14,40.32,88,100,5.55,overcast clouds
130,Saldanha,ZA,-33.01,17.94,60.8,51,0,20.8,clear sky
131,Casa Nova,BR,-9.42,-41.13,87.8,45,40,13.87,scattered clouds
132,Georgetown,MY,5.41,100.34,78.8,88,20,2.93,few clouds
133,Havelock,US,34.88,-76.9,75.99,89,72,10.83,broken clouds
134,Hervey Bay,AU,-25.3,152.85,63.0,71,61,1.01,broken clouds
135,Kikuyu,KE,-1.25,36.66,69.8,68,20,11.41,few clouds
136,Ponta Do Sol,PT,32.67,-17.1,68.0,60,40,10.29,scattered clouds
137,Tateyama,JP,34.98,139.87,54.0,32,43,11.9,scattered clouds
138,Tuxtla Gutierrez,MX,16.75,-93.12,77.0,73,20,4.7,few clouds
139,Zile,TR,40.3,35.89,48.2,57,0,2.24,clear sky
140,Mocuba,MZ,-16.84,36.99,87.6,44,17,10.13,few clouds
141,Moron,AR,-34.65,-58.62,73.99,54,100,3.0,overcast clouds
142,Saint-Leu,RE,-21.15,55.28,75.2,73,0,10.29,clear sky
143,Biltine,TD,14.53,20.92,85.44,21,8,9.22,clear sky
144,Kisangani,CD,0.52,25.2,76.48,82,85,2.95,overcast clouds
145,Paragominas,BR,-2.97,-47.48,85.15,74,97,5.28,overcast clouds
146,Victoria,HK,22.29,114.16,73.99,73,100,14.72,light rain
147,Kavieng,PG,-2.57,150.8,81.12,76,58,5.26,light rain
148,Zyryanka,RU,65.75,150.85,-8.23,91,100,6.91,overcast clouds
149,Shirokiy,RU,49.76,129.52,8.08,92,0,5.14,clear sky
150,Tuatapere,NZ,-46.13,167.68,40.87,91,8,3.31,clear sky
151,Luderitz,NA,-26.65,15.16,66.18,47,0,35.23,clear sky
152,Namibe,AO,-15.2,12.15,72.91,73,2,8.39,clear sky
153,Belmonte,BR,-15.86,-38.88,84.2,58,20,16.11,few clouds
154,Luxor,EG,25.7,32.64,75.2,44,0,2.24,clear sky
155,Ambulu,ID,-8.35,113.61,77.07,85,97,3.27,overcast clouds
156,Sechura,PE,-5.56,-80.82,77.02,47,77,8.34,broken clouds
157,Eureka,US,40.8,-124.16,35.01,86,1,5.82,clear sky
158,Karratha,AU,-20.74,116.85,71.38,53,0,15.23,light rain
159,San Borja,BO,-14.82,-66.85,101.66,29,28,6.33,scattered clouds
160,Jalu,LY,29.03,21.55,65.01,61,17,8.7,few clouds
161,Hamilton,US,39.18,-84.53,73.99,56,1,3.36,clear sky
162,Quatre Cocos,MU,-20.21,57.76,73.99,73,20,12.75,few clouds
163,Caravelas,BR,-17.71,-39.25,83.68,57,95,9.06,overcast clouds
164,Saravan,AM,39.72,45.65,46.4,65,20,6.93,few clouds
165,Boke,GN,10.94,-14.3,89.22,54,4,6.46,clear sky
166,San Juan,AR,-31.54,-68.54,85.42,28,0,5.95,clear sky
167,Borgarnes,IS,64.54,-21.92,48.2,81,90,12.75,overcast clouds
168,Saint-Pierre,RE,-21.34,55.48,75.2,73,0,10.29,clear sky
169,Severo-Kurilsk,RU,50.68,156.12,36.1,92,100,21.34,overcast clouds
170,Lebu,CL,-37.62,-73.65,58.23,72,7,19.01,clear sky
171,Pisco,PE,-13.7,-76.22,68.0,72,20,11.41,few clouds
172,Ibra,OM,22.69,58.53,72.36,65,25,3.83,scattered clouds
173,Hobyo,SO,5.35,48.53,81.12,77,39,18.5,scattered clouds
174,Basco,PH,20.45,121.97,78.62,83,99,32.77,overcast clouds
175,Pangnirtung,CA,66.15,-65.71,15.8,66,75,2.24,broken clouds
176,Sitka,US,57.05,-135.33,42.8,87,90,3.36,light rain
177,Waitara,NZ,-38.92,174.25,46.0,90,100,17.0,light rain
178,Rancho Veloz,CU,22.88,-80.39,75.2,100,75,4.7,broken clouds
179,Kita,ML,13.03,-9.49,95.41,13,0,6.44,clear sky
180,Tikapur,NP,28.5,81.13,66.06,53,0,4.43,clear sky
181,Kenai,US,60.55,-151.26,24.8,85,1,9.17,clear sky
182,Verkhnyaya Inta,RU,65.98,60.31,19.63,98,99,5.64,light snow
183,Hualmay,PE,-11.1,-77.61,69.4,63,98,11.92,overcast clouds
184,Coolum Beach,AU,-26.53,153.1,64.99,84,11,1.99,few clouds
185,Isangel,VU,-19.55,169.27,74.3,81,85,14.43,overcast clouds
186,Petropavlovsk-Kamchatskiy,RU,53.05,158.65,19.4,73,100,13.42,overcast clouds
187,Carolina,PR,18.38,-65.96,87.01,70,40,18.34,shower rain
188,Nome,US,64.5,-165.41,28.99,86,90,17.22,light snow
189,Am Timan,TD,11.03,20.28,84.81,28,10,0.58,clear sky
190,Kalabo,ZM,-14.97,22.68,87.49,28,92,6.06,overcast clouds
191,Changli,CN,39.7,119.15,42.89,53,0,4.25,clear sky
192,Novoagansk,RU,61.94,76.66,25.72,98,98,2.64,overcast clouds
193,Cuamba,MZ,-14.8,36.54,86.38,26,24,5.5,few clouds
194,Ashqelon,IL,31.67,34.57,73.4,69,40,3.36,scattered clouds
195,Kerema,PG,-7.96,145.78,77.2,90,100,9.08,light rain
196,Chauny,FR,49.62,3.22,60.01,87,0,6.93,clear sky
197,Chuy,UY,-33.7,-53.46,68.18,64,100,11.36,overcast clouds
198,Port Alfred,ZA,-33.59,26.89,62.02,62,100,12.44,overcast clouds
199,Lagoa,PT,39.05,-27.98,64.9,77,30,16.28,scattered clouds
200,Antsohihy,MG,-14.88,47.99,82.45,60,89,2.19,light rain
201,Cidreira,BR,-30.18,-50.21,67.75,88,100,17.49,light rain
202,Katherine,AU,-14.47,132.27,86.0,55,20,5.82,few clouds
203,Shamary,RU,57.34,58.22,30.11,98,100,11.18,overcast clouds
204,Naryan-Mar,RU,67.67,53.09,25.9,98,98,6.46,overcast clouds
205,Stornoway,GB,58.21,-6.39,53.6,87,75,4.7,broken clouds
206,Minsk,BY,53.9,27.57,32.0,81,40,6.71,scattered clouds
207,Warangal,IN,18.0,79.58,64.54,56,0,6.17,clear sky
208,Bredasdorp,ZA,-34.53,20.04,60.8,51,0,13.87,clear sky
209,Lafia,NG,8.48,8.52,84.15,36,58,3.49,broken clouds
210,Te Anau,NZ,-45.42,167.72,40.68,91,25,2.06,scattered clouds
211,Castro,BR,-24.79,-50.01,84.11,37,39,11.07,scattered clouds
212,Pointe Michel,DM,15.25,-61.38,78.8,94,75,12.75,light intensity shower rain
213,Wiehl,DE,50.95,7.53,59.0,77,0,3.36,clear sky
214,Barrow,US,71.29,-156.79,10.4,78,20,13.87,few clouds
215,Ondjiva,AO,-17.07,15.73,96.8,15,20,6.93,few clouds
216,Asau,RO,46.43,26.4,41.0,97,82,1.83,broken clouds
217,Abu Zabad,SD,12.35,29.25,81.28,19,92,10.69,overcast clouds
218,Zeya,RU,53.75,127.27,5.18,86,0,1.63,clear sky
219,Hithadhoo,MV,-0.6,73.08,83.97,76,97,13.87,heavy intensity rain
220,Yurimaguas,PE,-5.9,-76.08,87.8,66,40,4.7,scattered clouds
221,La Ronge,CA,55.1,-105.28,8.6,78,0,8.05,clear sky
222,Katsuura,JP,35.13,140.3,55.4,58,75,10.29,broken clouds
223,Imeni Poliny Osipenko,RU,52.42,136.49,6.69,89,21,1.54,few clouds
224,Durusu,TR,41.31,28.68,62.6,82,75,21.92,broken clouds
225,Saskylakh,RU,71.92,114.08,6.87,93,100,28.83,light snow
226,Vardo,NO,70.37,31.11,30.2,79,90,33.33,overcast clouds
227,Fort Nelson,CA,58.81,-122.7,15.8,92,75,1.86,broken clouds
228,Nioro,GM,13.35,-15.75,98.08,21,0,2.91,clear sky
229,Iqaluit,CA,63.75,-68.51,5.0,71,40,4.7,scattered clouds
230,Shache,CN,38.42,77.24,37.87,53,100,1.99,overcast clouds
231,Aloleng,PH,16.13,119.78,79.66,81,97,5.48,overcast clouds
232,Yueyang,CN,29.33,113.09,56.95,60,0,2.28,clear sky
233,Hofn,IS,64.25,-15.21,48.2,93,90,17.22,drizzle
234,Morros,BR,-9.45,-46.3,90.41,41,97,8.72,overcast clouds
235,Pangai,TO,-19.8,-174.35,76.39,84,22,17.58,light rain
236,El Rosario,MX,24.26,-107.18,86.0,69,5,3.36,clear sky
237,Kirakira,SB,-10.45,161.92,81.03,82,48,6.76,moderate rain
238,Touros,BR,-5.2,-35.46,78.8,94,75,13.87,shower rain
239,Salalah,OM,17.02,54.09,82.4,61,0,3.36,clear sky
240,Rio Grande,BR,-32.03,-52.1,66.2,93,90,14.99,mist
241,Tabou,CI,4.42,-7.35,81.23,78,66,8.21,light rain
242,Nanortalik,GL,60.14,-45.24,27.23,96,100,10.36,light snow
243,Vila Franca Do Campo,PT,37.72,-25.43,66.2,63,75,13.87,broken clouds
244,Lakselv,NO,70.05,24.97,35.6,80,75,20.8,light rain
245,Wiwili,NI,13.63,-85.83,73.4,94,75,3.04,broken clouds
246,Omegna,IT,45.88,8.41,55.99,72,3,4.0,clear sky
247,Bubaque,GW,11.28,-15.83,83.43,75,15,9.98,few clouds
248,Bud,US,39.45,-86.18,66.99,68,90,6.93,overcast clouds
249,Edd,ER,13.93,41.69,84.52,50,0,19.26,clear sky
250,Kodiak,US,57.79,-152.41,41.0,52,1,17.22,clear sky
251,Hasaki,JP,35.73,140.83,44.6,81,40,6.93,scattered clouds
252,Jitra,MY,6.27,100.42,77.0,94,20,2.24,few clouds
253,Port Lincoln,AU,-34.73,135.87,72.77,40,17,19.22,few clouds
254,Feijo,BR,-8.16,-70.35,97.16,38,69,2.26,broken clouds
255,Muros,ES,42.78,-9.06,60.01,79,3,5.01,clear sky
256,Ahipara,NZ,-35.17,173.17,53.17,89,46,7.31,scattered clouds
257,Rio Gallegos,AR,-51.62,-69.22,53.6,46,40,14.99,scattered clouds
258,Kathmandu,NP,27.72,85.32,55.4,82,20,3.36,few clouds
259,Burnie,AU,-41.07,145.92,55.99,82,89,4.0,overcast clouds
260,Inongo,CD,-1.95,18.27,70.07,95,100,5.75,overcast clouds
261,Riyadh,SA,24.69,46.72,80.6,36,0,4.7,clear sky
262,San Policarpo,PH,12.18,125.51,79.66,85,100,4.65,moderate rain
263,Port-Cartier,CA,50.03,-66.87,34.0,85,90,3.36,overcast clouds
264,Vao,NC,-22.67,167.48,70.2,74,42,16.91,scattered clouds
265,Kruisfontein,ZA,-34.0,24.73,59.0,68,7,1.99,clear sky
266,Upernavik,GL,72.79,-56.15,0.27,82,100,9.53,overcast clouds
267,Rincon,US,32.3,-81.24,80.01,74,75,17.22,broken clouds
268,Port-Gentil,GA,-0.72,8.78,82.4,78,75,11.41,broken clouds
269,Port Macquarie,AU,-31.43,152.92,55.99,85,43,4.56,scattered clouds
270,Klaksvik,FO,62.23,-6.59,51.8,93,85,12.75,overcast clouds
271,Waingapu,ID,-9.66,120.26,80.65,72,100,4.94,overcast clouds
272,Ocampo,MX,21.65,-101.5,69.87,30,2,2.24,clear sky
273,San Andres,CO,12.58,-81.7,82.4,83,75,8.05,shower rain
274,Umm Lajj,SA,25.02,37.27,78.66,60,0,8.41,clear sky
275,Grand Gaube,MU,-20.01,57.66,73.99,69,10,5.99,clear sky
276,Rizhao,CN,35.43,119.46,48.96,47,0,3.09,clear sky
277,Hay River,CA,60.82,-115.8,19.4,79,66,11.41,broken clouds
278,Honningsvag,NO,70.98,25.97,39.2,64,75,20.8,light rain
279,New Waterford,US,40.85,-80.61,71.01,56,0,7.0,clear sky
280,Katobu,ID,-4.94,122.53,75.15,87,97,3.87,overcast clouds
281,Kayerkan,RU,69.35,87.76,15.8,92,40,8.95,light snow
282,Khani,GE,41.96,42.96,50.0,93,0,2.24,clear sky
283,Tazmalt,DZ,36.39,4.4,69.8,77,40,6.93,scattered clouds
284,Torbay,CA,47.67,-52.73,41.0,64,90,16.11,light rain
285,Ancud,CL,-41.87,-73.82,64.4,59,0,18.34,clear sky
286,Tsumeb,NA,-19.23,17.72,84.76,26,55,14.72,broken clouds
287,La Rioja,ES,42.25,-2.5,59.0,77,40,3.36,scattered clouds
288,Gladstone,AU,-23.85,151.25,66.2,63,40,4.7,scattered clouds
289,Saint-Denis,FR,48.92,2.33,62.01,77,0,5.82,clear sky
290,Korcula,HR,42.96,17.14,57.2,58,0,2.24,clear sky
291,Lorengau,PG,-2.02,147.27,80.83,76,89,1.63,overcast clouds
292,Wanning,CN,18.8,110.4,70.41,86,100,19.44,overcast clouds
293,Kushima,JP,31.46,131.23,53.73,76,7,3.69,clear sky
294,Royan,FR,45.63,-1.03,64.4,72,0,4.7,clear sky
295,Conceicao Da Barra,BR,-18.59,-39.73,83.12,63,51,10.89,broken clouds
296,Thompson,CA,55.74,-97.86,14.0,85,90,16.11,light snow
297,Pundaguitan,PH,6.37,126.17,82.74,78,100,9.51,overcast clouds
298,Mogok,MM,22.92,96.5,60.19,92,0,2.01,clear sky
299,Acarau,BR,-2.89,-40.12,89.67,51,11,20.87,few clouds
300,Gravdal,NO,68.12,13.5,37.4,64,75,11.41,broken clouds
301,Aswan,EG,24.09,32.91,72.9,28,0,5.99,clear sky
302,Port Hardy,CA,50.7,-127.42,41.0,86,90,6.93,light rain
303,Beringovskiy,RU,63.05,179.32,34.29,96,100,35.37,overcast clouds
304,Sao Miguel Do Araguaia,BR,-13.28,-50.16,93.09,39,96,1.59,overcast clouds
305,Areka,ET,7.07,37.7,65.12,66,61,5.35,broken clouds
306,Kushmurun,KZ,52.45,64.63,33.87,86,25,10.98,scattered clouds
307,Muzhi,RU,65.37,64.67,20.55,96,99,6.64,overcast clouds
308,Wyndham,US,37.7,-77.61,75.99,60,1,1.77,clear sky
309,Muroto,JP,33.28,134.15,58.08,58,5,12.71,clear sky
310,Port Moresby,PG,-9.44,147.18,78.8,78,75,5.82,broken clouds
311,Nabire,ID,-3.37,135.48,76.28,86,100,2.77,overcast clouds
312,Eidfjord,NO,60.47,7.07,30.99,77,19,5.35,few clouds
313,Xining,CN,36.62,101.77,38.03,53,0,1.1,clear sky
314,Sisimiut,GL,66.94,-53.67,15.71,93,88,12.39,overcast clouds
315,Longyearbyen,SJ,78.22,15.64,23.0,67,75,5.82,broken clouds
316,Lewistown,US,40.6,-77.57,69.01,63,1,3.22,clear sky
317,Jumla,NP,29.27,82.18,45.01,63,2,3.62,clear sky
318,Caceres,ES,39.52,-6.37,59.0,83,39,6.2,scattered clouds
319,Srivardhan,IN,18.03,73.02,76.53,63,0,5.03,clear sky
320,Ippy,CF,6.27,21.22,75.69,62,67,0.78,broken clouds
321,Weiser,US,44.25,-116.97,30.99,54,90,9.17,overcast clouds
322,Kandrian,PG,-6.22,149.55,78.19,88,98,9.62,moderate rain
323,Gazli,UZ,40.13,63.45,39.79,72,0,3.24,clear sky
324,Lasa,IT,46.62,10.7,48.2,61,5,2.46,clear sky
325,Samarai,PG,-10.62,150.67,79.11,85,99,13.06,light rain
326,Tynda,RU,55.17,124.72,-1.91,89,93,0.89,overcast clouds
327,Taoudenni,ML,22.68,-3.98,90.66,12,34,4.85,scattered clouds
328,Airai,TL,-8.93,125.41,61.77,87,100,2.24,overcast clouds
329,Skjervoy,NO,70.03,20.97,35.6,74,75,23.04,broken clouds
330,Ust-Ishim,RU,57.69,71.17,28.4,98,95,7.02,overcast clouds
331,Melfi,IT,41.0,15.65,51.01,63,0,3.0,clear sky
332,Kaniama,CD,-7.57,24.18,71.06,91,88,5.1,overcast clouds
333,Sault Sainte Marie,CA,46.52,-84.33,64.4,72,20,4.7,few clouds
334,Virginia Beach,US,36.85,-75.98,73.99,49,40,6.93,scattered clouds
335,Birao,CF,10.28,22.79,81.3,28,5,4.34,clear sky
336,Talara,PE,-4.58,-81.27,78.8,57,0,10.29,clear sky
337,Gimli,CA,50.63,-96.99,24.8,62,41,12.75,scattered clouds
338,Leningradskiy,RU,69.38,178.42,17.65,93,97,6.15,overcast clouds
339,Viedma,AR,-40.81,-63.0,79.0,58,100,1.01,overcast clouds
340,Berlevag,NO,70.86,29.09,35.6,82,75,39.15,broken clouds
341,Kawalu,ID,-7.38,108.21,71.85,92,80,0.72,broken clouds
342,Ndola,ZM,-12.96,28.64,81.84,20,54,8.88,broken clouds
343,Ucluelet,CA,48.93,-125.55,45.0,80,90,11.41,overcast clouds
344,Pandaria,IN,22.23,81.42,61.66,39,0,4.27,clear sky
345,Kahului,US,20.89,-156.47,73.0,73,1,11.83,clear sky
346,Raudeberg,NO,61.99,5.14,48.99,78,99,14.97,overcast clouds
347,Cabo San Lucas,MX,22.89,-109.91,81.0,56,5,13.87,clear sky
348,Beloha,MG,-25.17,45.05,77.27,55,7,9.37,clear sky
349,Coronel Bogado,PY,-27.18,-56.3,78.8,69,100,3.36,overcast clouds
350,Mogadouro,PT,41.34,-6.71,55.99,81,24,3.33,few clouds
351,Teya,RU,60.38,92.63,32.31,95,97,12.33,overcast clouds
352,Lazaro Cardenas,MX,17.96,-102.2,84.47,66,12,1.83,few clouds
353,Adrar,MR,20.5,-10.07,91.85,11,0,10.0,clear sky
354,Comodoro Rivadavia,AR,-45.87,-67.5,69.8,46,0,12.75,clear sky
355,Ostrovnoy,RU,68.05,39.51,34.84,84,74,20.78,broken clouds
356,College,US,64.86,-147.8,26.01,94,100,1.01,overcast clouds
357,Tocopilla,CL,-22.09,-70.2,69.4,47,10,7.72,clear sky
358,Dangara,IN,29.68,75.89,66.83,24,33,3.22,scattered clouds
359,Necochea,AR,-38.55,-58.74,73.22,48,100,12.26,overcast clouds
360,Tucumcari,US,35.17,-103.72,64.4,42,1,11.41,clear sky
361,San Lorenzo,PY,-25.33,-57.53,69.8,94,90,11.41,moderate rain
362,Zhangjiakou,CN,40.81,114.88,37.74,63,0,2.91,clear sky
363,Namatanai,PG,-3.67,152.43,80.37,77,96,3.89,overcast clouds
364,Paita,PE,-5.09,-81.11,78.8,57,0,10.29,clear sky
365,Goleniow,PL,53.56,14.83,45.0,87,90,9.17,overcast clouds
366,Yangambi,CD,0.81,24.43,75.06,85,85,2.95,overcast clouds
367,Preobrazheniye,RU,42.9,133.91,26.37,85,0,10.04,clear sky
368,Maseru,LS,-29.32,27.48,72.32,48,100,1.66,overcast clouds
369,Shingu,JP,33.73,135.98,47.3,75,0,7.54,clear sky
370,Benjamin Constant,BR,-4.38,-70.03,84.2,74,40,2.24,scattered clouds
371,Sao Felix Do Xingu,BR,-6.64,-51.99,92.91,45,97,4.81,overcast clouds
372,Gomel,BY,52.43,30.98,44.6,87,90,2.24,overcast clouds
373,Aykhal,RU,66.0,111.5,10.4,85,90,11.18,snow
374,Halifax,CA,44.65,-63.57,55.99,81,75,12.75,broken clouds
375,Dwarka,IN,22.24,68.97,81.03,54,0,11.23,clear sky
376,Qaqortoq,GL,60.72,-46.03,28.4,86,75,3.94,light snow
377,Solhan,TR,38.96,41.03,47.61,62,25,2.73,scattered clouds
378,Avera,US,33.19,-82.53,77.0,69,75,11.41,broken clouds
379,Aksarka,RU,66.56,67.8,13.41,97,100,5.03,light snow
380,Shebalino,RU,51.29,85.68,31.87,85,61,16.69,broken clouds
381,Batagay,RU,67.63,134.63,-26.3,82,0,3.69,clear sky
382,Juneau,US,58.3,-134.42,35.6,93,90,11.41,light rain
383,Broome,US,42.25,-75.83,66.0,51,1,4.7,clear sky
384,Ornskoldsvik,SE,63.29,18.72,35.6,93,99,9.17,overcast clouds
385,Fortuna,US,40.6,-124.16,32.0,52,1,5.82,clear sky
386,Ilebo,CD,-4.32,20.58,72.54,85,100,2.04,overcast clouds
387,Tarauaca,BR,-8.16,-70.77,95.58,40,52,2.06,broken clouds
388,Hovd,MN,48.01,91.64,32.63,74,95,4.41,overcast clouds
389,Denpasar,ID,-8.65,115.22,82.4,78,20,3.36,few clouds
390,Hirara,JP,24.8,125.28,72.64,76,98,25.93,overcast clouds
391,Matagami,CA,49.75,-77.63,59.0,77,1,11.41,clear sky
392,Mackenzie,CA,55.3,-123.17,23.0,92,90,10.29,light snow
393,Yacuiba,BO,-22.04,-63.68,82.4,58,60,9.17,broken clouds
394,Tucuman,AR,-26.82,-65.22,80.6,51,40,6.93,scattered clouds
395,Kokkola,FI,63.84,23.13,42.01,69,0,4.7,clear sky
396,Coquimbo,CL,-29.95,-71.34,59.0,77,75,12.75,broken clouds
397,Sola,VU,-13.88,167.55,81.46,81,95,10.29,light rain
398,Nadvoitsy,RU,63.87,34.32,34.21,88,94,14.14,overcast clouds
399,Disa,IN,24.25,72.17,74.01,25,0,1.48,clear sky
400,Dakoro,NE,14.51,6.76,82.62,19,15,8.93,few clouds
401,Bahraich,IN,27.58,81.6,69.62,45,0,3.15,clear sky
402,Entebbe,UG,0.06,32.45,73.4,83,20,5.82,few clouds
403,Abu Samrah,SY,35.3,37.18,64.54,53,33,6.91,scattered clouds
404,Dutse,NG,11.76,9.34,79.59,26,1,5.97,clear sky
405,Pimentel,PE,-6.84,-79.93,73.4,56,0,14.99,clear sky
406,Henties Bay,NA,-22.12,14.28,63.0,74,0,10.0,clear sky
407,Santa Isabel,BR,-23.32,-46.22,87.8,42,0,3.36,clear sky
408,Atambua,ID,-9.11,124.89,75.54,83,100,3.89,overcast clouds
409,Ormara,PK,25.21,64.64,77.49,73,0,9.44,clear sky
410,Powell River,CA,49.85,-124.54,41.0,60,90,8.05,overcast clouds
411,Gizo,SB,-8.1,156.84,82.49,76,88,8.5,light rain
412,Baykit,RU,61.67,96.37,30.67,94,89,9.1,overcast clouds
413,Ishigaki,JP,24.34,124.16,73.38,78,100,26.11,overcast clouds
414,Chapais,CA,49.78,-74.85,53.6,81,20,9.17,few clouds
415,Charters Towers,AU,-20.1,146.27,66.97,78,16,12.33,few clouds
416,Axim,GH,4.87,-2.24,81.5,77,61,7.92,light rain
417,Strazske,SK,48.87,21.84,44.6,87,19,4.92,few clouds
418,Gaurnadi,BD,22.97,90.23,72.03,68,0,3.29,clear sky
419,Balezino,RU,57.98,53.01,30.58,97,100,12.39,overcast clouds
420,Pemangkat,ID,1.17,108.97,76.37,89,100,5.66,overcast clouds
421,Diffa,NE,13.32,12.61,80.42,19,0,10.07,clear sky
422,Cherskiy,RU,68.75,161.3,3.02,94,100,5.12,light snow
423,Harlingen,US,26.19,-97.7,82.0,69,20,11.41,few clouds
424,Narsaq,GL,60.92,-46.05,28.4,86,75,3.42,light snow
425,Shenjiamen,CN,29.96,122.3,59.5,63,26,9.86,scattered clouds
426,Tambacounda,SN,13.75,-13.76,98.6,37,20,4.7,few clouds
427,Sehithwa,BW,-20.47,22.72,85.57,29,60,14.5,broken clouds
428,Margate,GB,51.38,1.39,57.0,89,51,1.01,light rain
429,Gubkinskiy,RU,64.43,76.5,17.64,97,93,4.56,overcast clouds
430,Rudnya,RU,54.95,31.09,33.8,89,2,6.71,clear sky
431,Cap Malheureux,MU,-19.98,57.61,73.99,69,8,5.99,clear sky
432,Cooma,AU,-36.23,149.13,44.6,100,4,6.93,clear sky
433,Bawku,GH,11.06,-0.24,90.77,19,100,4.99,overcast clouds
434,Tuxpan,MX,19.55,-103.4,77.0,69,5,1.92,clear sky
435,Emba,KZ,48.83,58.14,35.55,82,22,8.79,few clouds
436,Illela,NG,13.73,5.3,85.05,15,18,8.1,few clouds
437,Yerbogachen,RU,61.28,108.01,35.92,87,100,11.32,overcast clouds
438,San Quintin,MX,30.48,-115.95,60.04,57,71,10.96,broken clouds
439,Mahina,PF,-17.51,-149.49,71.6,100,75,2.24,light rain
440,Khandyga,RU,62.67,135.6,-18.11,86,0,1.9,clear sky
441,Dalmau,IN,26.07,81.03,69.58,27,0,0.13,clear sky
442,San Cristobal,VE,7.77,-72.22,86.0,62,40,6.93,scattered clouds
443,Bavly,RU,54.39,53.26,31.89,93,98,11.36,overcast clouds
444,Marawi,PH,8.0,124.29,75.0,95,96,3.0,overcast clouds
445,Yamandu,SL,7.94,-11.49,85.05,65,99,2.73,overcast clouds
446,Severnoye,RU,56.35,78.36,34.14,90,97,13.15,overcast clouds
447,Sao Joao Da Barra,BR,-21.64,-41.05,84.2,66,75,9.53,broken clouds
448,Tamandare,BR,-8.76,-35.1,80.74,76,47,13.4,scattered clouds
449,Richards Bay,ZA,-28.78,32.04,70.68,76,97,15.17,light rain
450,Kaka,TM,37.35,59.61,49.41,65,0,6.38,clear sky
451,Linjiang,CN,41.81,126.91,23.4,81,0,1.66,clear sky
452,Acapulco,MX,16.86,-99.89,84.2,70,5,2.24,clear sky
453,Itoman,JP,26.12,127.67,69.8,64,75,12.75,broken clouds
454,Escarcega,MX,18.61,-90.75,83.88,58,13,5.32,few clouds
455,Half Moon Bay,US,37.46,-122.43,50.0,42,1,6.93,clear sky
456,Rocha,UY,-34.48,-54.33,69.94,59,100,9.78,overcast clouds
457,San Patricio,US,28.02,-97.52,82.99,65,40,13.87,scattered clouds
458,Vrangel,RU,42.73,133.08,29.75,84,0,14.05,clear sky
459,Faanui,PF,-16.48,-151.75,78.24,82,84,16.15,broken clouds
460,Scottsbluff,US,41.87,-103.67,28.4,79,90,8.05,overcast clouds
461,Kormilovka,RU,55.0,74.1,33.8,80,0,11.18,clear sky
462,Bima,ID,-8.47,118.72,78.6,81,100,4.65,overcast clouds
463,Santa Cruz,BO,-17.8,-63.17,82.4,61,75,24.16,heavy intensity rain
464,Kysyl-Syr,RU,63.9,122.76,-7.02,89,50,11.14,scattered clouds
465,Codrington,AU,-38.27,141.97,67.77,41,29,12.01,scattered clouds
466,Banda Aceh,ID,5.56,95.32,79.23,82,97,4.5,overcast clouds
467,Sibu,MY,2.3,111.82,75.2,94,40,4.7,scattered clouds
468,Ilo,PE,-17.64,-71.34,66.2,72,90,6.93,overcast clouds
469,La Union,PE,-5.4,-80.75,83.84,35,81,7.94,broken clouds
470,Moussoro,TD,13.64,16.49,84.78,19,9,9.95,clear sky
471,Liwale,TZ,-9.77,37.93,81.84,41,62,8.23,broken clouds
472,Leh,IN,34.17,77.58,34.72,56,79,3.06,broken clouds
473,La Ciotat,FR,43.17,5.6,63.0,85,87,8.21,overcast clouds
474,Ayr,GB,55.46,-4.63,55.4,87,40,4.7,scattered clouds
475,Nantucket,US,41.28,-70.1,68.0,56,1,10.29,clear sky
476,Pocri,PA,8.27,-80.55,82.4,78,40,3.36,scattered clouds
477,Sinjar,IQ,36.32,41.88,67.24,54,54,4.09,broken clouds
478,Palamos,ES,41.85,3.13,61.0,51,100,7.43,overcast clouds
479,Sabha,LY,27.04,14.43,61.07,51,1,1.12,clear sky
480,Altay,CN,47.87,88.12,30.88,86,45,3.96,scattered clouds
481,Xichang,CN,27.9,102.26,51.39,71,2,1.03,clear sky
482,Vanimo,PG,-2.67,141.3,79.75,78,100,2.1,overcast clouds
483,Walla Walla,US,46.06,-118.34,28.99,79,1,6.93,clear sky
484,Naro Moru,KE,-0.17,37.02,59.65,95,94,2.62,moderate rain
485,Sinnar,SD,13.57,33.57,85.05,21,74,10.22,broken clouds
486,Roma,US,43.21,-75.46,66.99,51,1,4.7,clear sky
487,Portland,US,45.52,-122.68,35.6,71,90,3.36,fog
488,Cururupu,BR,-1.83,-44.87,85.12,71,100,8.84,overcast clouds
489,Almaznyy,RU,48.04,40.05,46.4,81,75,4.47,broken clouds
490,Sinnamary,GF,5.38,-52.95,85.73,63,40,9.19,scattered clouds
491,Olafsvik,IS,64.89,-23.71,45.41,92,100,19.91,overcast clouds
492,Cardonal,MX,20.6,-99.13,72.5,40,0,1.68,clear sky
493,Maryborough,AU,-25.53,152.7,63.0,71,34,1.01,scattered clouds
494,Yaan,NG,7.38,8.57,84.25,38,16,4.05,few clouds
495,Bobrovka,RU,54.05,61.75,31.98,91,60,12.39,broken clouds
496,Puerto Carreno,CO,6.19,-67.49,90.61,56,36,1.61,scattered clouds
497,Uruzgan,AF,32.83,66.0,41.67,51,0,1.41,clear sky
498,Saint-Georges,GD,12.06,-61.75,86.0,74,40,21.92,scattered clouds
499,Balotra,IN,25.83,72.23,77.95,21,0,2.35,clear sky
500,Lusaka,ZM,-15.41,28.29,83.93,19,54,7.83,broken clouds
501,Stromness,GB,58.97,-3.3,50.0,100,75,10.29,mist
502,Los Llanos De Aridane,ES,28.66,-17.92,71.6,68,75,5.82,broken clouds
503,Kavaratti,IN,10.57,72.64,83.77,76,95,8.43,overcast clouds
504,Vila Velha,BR,-20.33,-40.29,87.8,58,20,12.75,few clouds
505,Narrabri,AU,-30.32,149.78,55.4,71,0,2.24,clear sky
506,Krasnoselkup,RU,65.7,82.47,7.68,95,87,7.58,overcast clouds
507,Muret,FR,43.33,1.25,66.2,59,40,3.36,scattered clouds
508,White Rock,CA,49.02,-122.8,37.4,59,100,2.24,overcast clouds
509,Roebourne,AU,-20.78,117.13,72.72,49,0,13.78,clear sky
510,Peleduy,RU,59.63,112.74,31.98,96,93,7.56,overcast clouds
511,Skowhegan,US,44.77,-69.72,62.01,87,1,4.81,clear sky
512,Conde,BR,-7.26,-34.91,86.0,70,75,16.11,broken clouds
513,Tiarei,PF,-17.53,-149.33,71.6,100,75,2.24,light rain
514,Huancabamba,PE,-5.24,-79.45,74.32,45,96,2.28,light rain
515,Fairbanks,US,64.84,-147.72,26.01,89,100,1.01,overcast clouds
516,Dauphin,CA,51.15,-100.05,19.4,89,90,13.87,overcast clouds
517,Westport,US,41.14,-73.36,72.0,55,1,6.93,clear sky
518,Englehart,CA,47.82,-79.87,60.8,72,75,13.87,broken clouds
519,Kangaatsiaq,GL,68.31,-53.46,15.89,86,82,5.77,broken clouds
520,Norrtalje,SE,59.76,18.7,46.0,88,36,5.01,scattered clouds
521,Kendari,ID,-3.94,122.5,74.93,87,100,1.77,overcast clouds
522,Ustka,PL,54.58,16.86,44.96,82,10,7.02,clear sky
523,Boguchany,RU,58.38,97.45,35.94,85,100,8.93,overcast clouds
524,Galatas,GR,37.5,23.45,63.0,69,26,3.0,scattered clouds
525,Arcachon,FR,44.59,-1.05,66.2,63,0,2.24,clear sky
526,Santa Marinella,IT,42.03,11.85,62.01,88,3,5.01,clear sky
527,Nago,JP,26.59,127.98,68.0,68,90,11.41,overcast clouds
528,Honiara,SB,-9.43,159.95,77.0,94,20,2.24,few clouds
529,Iwanai,JP,42.97,140.51,34.23,87,99,13.22,light rain
530,Gat,IL,31.61,34.76,73.0,67,3,6.73,clear sky
531,Trinidad,BO,-14.83,-64.9,86.0,66,75,4.7,broken clouds
532,Geraldton,AU,-28.77,114.6,60.8,59,75,16.11,broken clouds
533,Vitim,RU,59.45,112.56,31.64,95,89,7.58,overcast clouds
534,Marsh Harbour,BS,26.54,-77.06,79.3,82,82,21.05,broken clouds
535,Mnogovershinnyy,RU,53.94,139.92,13.91,96,100,11.56,light snow
536,Alta Floresta,BR,-9.88,-56.09,92.89,43,67,4.99,light rain
537,At-Bashi,KG,41.17,75.81,31.95,85,33,0.47,scattered clouds
538,Praia Da Vitoria,PT,38.73,-27.07,68.0,68,40,22.3,scattered clouds
539,Mayor Pablo Lagerenza,PY,-19.93,-60.77,98.82,29,100,7.78,overcast clouds
540,Kindu,CD,-2.95,25.95,72.14,96,99,2.46,overcast clouds
541,Christchurch,NZ,-43.53,172.63,48.0,93,87,3.36,overcast clouds
542,Southampton,GB,50.9,-1.4,57.2,93,40,3.36,shower rain
543,Farafangana,MG,-22.82,47.83,73.09,86,3,9.84,clear sky
544,Bone,DE,51.97,12.14,44.01,92,39,4.0,scattered clouds
545,Barstow,US,34.9,-117.02,39.0,64,1,10.29,clear sky
546,Catuday,PH,16.29,119.81,78.8,84,94,5.06,light rain
547,Soyo,AO,-6.13,12.37,78.35,83,95,10.87,overcast clouds
548,Vesyegonsk,RU,58.66,37.26,37.96,82,99,14.92,overcast clouds
549,Yar-Sale,RU,66.83,70.83,8.58,94,99,9.26,overcast clouds
550,Ratnagiri,IN,16.98,73.3,77.05,65,0,5.55,clear sky
551,Palmer,US,42.16,-72.33,69.01,50,0,3.49,clear sky
552,Knysna,ZA,-34.04,23.05,59.0,62,40,8.05,scattered clouds
553,Vyritsa,RU,59.41,30.35,42.8,75,75,17.9,broken clouds
554,Leyland,GB,53.7,-2.69,55.99,93,75,5.82,broken clouds
555,Majene,ID,-3.54,118.97,79.39,79,97,6.02,overcast clouds
556,Rawson,AR,-43.3,-65.1,79.74,36,43,15.23,scattered clouds
557,Druzhba,UA,52.04,33.95,38.91,76,16,6.29,few clouds
558,Ipswich,GB,52.06,1.16,55.99,100,75,9.17,mist
559,Voh,NC,-20.97,164.7,69.08,78,79,6.89,broken clouds
560,Agbor,NG,6.25,6.19,81.14,73,75,3.22,light rain
561,Mosquera,CO,4.71,-74.23,62.6,63,40,6.93,scattered clouds
562,Yulara,AU,-25.24,130.99,78.8,31,55,2.24,broken clouds
563,Kongoussi,BF,13.33,-1.53,90.27,12,3,8.25,clear sky
564,Pangody,RU,65.85,74.49,14.02,97,100,5.46,overcast clouds
565,Turochak,RU,52.26,87.12,33.22,94,87,3.04,overcast clouds
566,Bathsheba,BB,13.22,-59.52,86.0,74,40,14.99,shower rain
567,Russell,US,32.35,-85.2,75.2,69,75,12.75,broken clouds
568,Tazovskiy,RU,67.47,78.7,2.03,94,95,7.96,overcast clouds
569,Cabo Rojo,PR,18.09,-67.15,88.0,71,100,5.01,overcast clouds
570,Elliot,ZA,-31.33,27.85,49.57,92,100,7.52,overcast clouds
571,Hermiston,US,45.84,-119.29,30.0,74,1,4.7,clear sky
572,Kailua,US,21.4,-157.74,78.8,74,75,12.75,broken clouds
573,Helong,CN,42.54,129.0,19.24,81,0,4.03,clear sky
574,Dir,PK,35.21,71.88,52.18,40,65,3.87,broken clouds
575,Passo De Camaragibe,BR,-9.24,-35.49,78.8,88,75,12.75,shower rain
576,Valley City,US,46.92,-98.0,26.6,58,40,20.8,scattered clouds
577,Mporokoso,ZM,-9.37,30.12,74.44,48,100,2.15,overcast clouds
578,Coari,BR,-4.08,-63.14,89.74,59,78,3.83,broken clouds
579,Effium,NG,6.63,8.06,84.58,57,47,1.14,scattered clouds
580,Xambioa,BR,-6.41,-48.54,95.2,39,82,7.31,broken clouds
581,Mecca,SA,21.43,39.83,81.46,66,0,6.06,clear sky
582,Campbell River,CA,50.02,-125.24,39.99,89,75,2.24,broken clouds
583,Hammerfest,NO,70.66,23.68,33.8,84,75,19.46,light rain
584,Upington,ZA,-28.45,21.26,78.8,10,0,12.75,clear sky
585,Zaragoza,ES,41.66,-0.88,62.6,67,20,0.94,few clouds
586,Nacala,MZ,-14.54,40.67,79.68,79,37,8.28,scattered clouds
587,Sidi Ali,DZ,36.1,0.42,63.27,84,23,5.86,few clouds
588,Serra,BR,-20.13,-40.31,87.8,58,20,12.75,few clouds
589,Lavrentiya,RU,65.58,-171.0,32.77,96,100,29.82,overcast clouds
590,Parry Sound,CA,45.35,-80.03,64.0,59,85,7.58,overcast clouds
591,Akonolinga,CM,3.77,12.25,74.73,77,69,1.05,broken clouds
592,Bograd,RU,54.23,90.83,39.2,64,0,17.9,clear sky
593,Matay,EG,28.42,30.78,73.0,52,91,7.7,overcast clouds
594,Guarapari,BR,-20.67,-40.5,86.0,68,66,11.9,moderate rain
595,Torit,SS,4.41,32.57,76.28,75,81,1.54,light rain
596,Linxia,CN,35.6,103.21,41.29,60,0,1.57,clear sky
597,Puerto Escondido,MX,15.85,-97.07,86.0,62,20,4.7,few clouds
598,Kuryk,KZ,43.2,51.65,53.01,77,0,7.7,clear sky
599,Muncar,ID,-8.43,114.33,77.38,84,100,1.79,overcast clouds
600,Pokrovskoye,RU,47.42,38.9,48.42,69,64,2.01,broken clouds
601,Mount Gambier,AU,-37.83,140.77,66.2,48,0,8.05,clear sky
602,Talcahuano,CL,-36.72,-73.12,66.2,63,0,12.75,clear sky
603,Ubatuba,BR,-23.43,-45.07,93.2,28,20,4.7,few clouds
604,Alofi,NU,-19.06,-169.92,71.6,94,40,8.05,scattered clouds
605,Sur,OM,22.57,59.53,77.9,74,1,4.9,clear sky
606,Owatonna,US,44.08,-93.23,62.6,93,90,14.99,drizzle
607,Cumberland,US,35.05,-78.87,73.99,77,90,6.93,light rain
608,Guanare,VE,9.04,-69.74,89.51,60,99,2.39,overcast clouds
609,Porbandar,IN,21.64,69.61,80.26,44,0,12.48,clear sky
610,Lima,PE,-12.04,-77.03,69.8,60,75,9.17,broken clouds
611,Moose Factory,CA,51.26,-80.61,62.6,77,1,14.99,clear sky
612,Baiyin,CN,36.56,104.21,43.0,50,0,8.95,clear sky
613,Aleksandrov Gay,RU,50.15,48.57,39.25,69,0,5.23,clear sky
614,Yarkovo,RU,57.4,67.08,31.71,96,98,8.72,overcast clouds
615,Miles City,US,46.41,-105.84,17.6,78,75,16.11,broken clouds
616,Safford,US,32.83,-109.71,48.2,61,90,14.99,overcast clouds
617,Davila,PH,18.47,120.58,79.57,82,95,21.09,overcast clouds
618,Okakarara,NA,-20.58,17.43,88.34,15,82,15.19,broken clouds
619,Barcanesti,RO,44.88,26.05,46.4,100,90,3.36,mist
620,Picos,BR,-7.08,-41.47,96.49,29,1,9.64,clear sky
621,Mount Isa,AU,-20.73,139.5,73.4,28,0,14.47,clear sky
622,Lidkoping,SE,58.51,13.16,46.4,87,75,2.8,broken clouds
623,Mansa,IN,29.98,75.38,65.77,25,45,3.22,scattered clouds
624,Young,UY,-32.68,-57.63,68.0,78,100,4.0,overcast clouds
625,Kintampo,GH,8.06,-1.73,85.82,54,100,2.06,overcast clouds
626,Dekar,BW,-21.53,21.93,89.74,22,24,5.03,few clouds
627,Ola,RU,59.58,151.28,6.69,86,35,12.77,scattered clouds
628,Bedele,ET,8.46,36.35,56.55,97,2,2.82,clear sky
629,Baracoa,CU,20.35,-74.5,86.09,67,57,9.93,broken clouds
630,Kaohsiung,TW,22.62,120.31,71.6,73,75,2.24,broken clouds
631,Manyana,BW,-23.4,21.72,85.44,26,67,12.88,broken clouds
632,Bilibino,RU,68.05,166.44,-2.9,90,96,1.25,overcast clouds
633,Lovrenc Na Pohorju,SI,46.54,15.39,39.99,85,11,0.16,few clouds
634,Kovur,IN,14.48,79.98,72.45,65,0,6.98,clear sky
635,Ixtapa,MX,20.7,-105.2,82.0,61,5,2.24,clear sky
636,Brownsville,US,25.9,-97.5,82.4,61,40,12.75,scattered clouds
637,Chara,RU,56.91,118.26,16.63,91,45,2.08,scattered clouds
638,Sangar,RU,63.92,127.47,-15.7,86,16,8.79,few clouds
639,Kletskaya,RU,49.31,43.06,42.08,59,0,4.41,clear sky
640,Hanmer Springs,NZ,-42.52,172.82,43.16,86,100,2.64,overcast clouds
641,Trelew,AR,-43.25,-65.31,86.2,24,39,10.67,scattered clouds
642,Daru,PG,-9.08,143.21,79.45,83,100,14.09,light rain
643,Piacabucu,BR,-10.41,-36.43,82.54,68,38,13.2,scattered clouds
644,Mayo,US,38.89,-76.51,73.99,93,1,9.17,mist
645,Manaia,NZ,-39.55,174.13,48.0,96,100,4.0,light rain
646,Guerrero Negro,MX,27.98,-114.06,67.69,50,45,15.84,scattered clouds
647,Ghugus,IN,19.93,79.13,64.15,48,0,2.1,clear sky
648,Tomatlan,MX,19.93,-105.25,87.8,52,0,1.36,clear sky
649,Ligayan,PH,4.65,119.47,84.02,78,53,15.77,broken clouds
650,Oranjestad,AW,12.52,-70.03,78.8,94,40,2.24,scattered clouds
651,Goure,NE,13.98,10.27,82.99,24,0,5.01,clear sky
652,Ugoofaaru,MV,5.67,73.0,84.04,75,100,9.42,overcast clouds
653,Kalmunai,LK,7.42,81.82,79.29,84,36,8.93,light rain
654,Apac,UG,1.98,32.54,67.48,92,98,3.27,light rain
655,High Rock,BS,26.62,-78.28,82.4,83,75,18.34,broken clouds
656,Cedar City,US,37.68,-113.06,28.4,86,90,5.82,overcast clouds
657,Killybegs,IE,54.63,-8.45,57.2,87,0,8.05,clear sky
658,Kalety,PL,50.56,18.89,42.01,100,90,6.93,mist
659,Brigantine,US,39.41,-74.36,71.6,64,1,5.82,clear sky
660,Puerto Del Rosario,ES,28.5,-13.86,73.4,69,75,11.41,broken clouds
661,Kankan,GN,10.39,-9.31,91.09,28,24,2.21,few clouds
662,Pochutla,MX,15.74,-96.47,84.99,66,75,4.76,broken clouds
663,Maihar,IN,24.27,80.75,63.81,31,0,2.24,clear sky
664,Kempele,FI,64.91,25.5,41.0,56,0,19.46,clear sky
665,Pandan,PH,14.05,124.17,81.32,87,98,12.57,light rain
666,Woodward,US,36.43,-99.39,66.2,72,90,17.22,overcast clouds
667,Shitanjing,CN,39.23,106.34,41.58,61,0,4.05,clear sky
668,Buala,SB,-8.14,159.59,80.29,80,0,5.66,clear sky
669,Bezhetsk,RU,57.79,36.7,37.94,90,88,16.82,overcast clouds
670,Taksimo,RU,56.34,114.88,14.0,93,84,1.43,broken clouds
671,Tomaszow Lubelski,PL,50.45,23.42,41.0,99,98,7.36,overcast clouds
672,Anadyr,RU,64.75,177.48,28.4,92,75,17.9,light snow
673,Cascais,PT,38.7,-9.42,66.2,68,20,8.05,few clouds
674,Namie,JP,37.48,141.0,39.99,86,4,5.91,clear sky
675,Rosetta,EG,31.4,30.42,71.6,68,40,4.7,scattered clouds
676,Faya,SA,18.39,42.45,66.2,72,0,4.7,clear sky
677,Noumea,NC,-22.28,166.46,64.4,72,75,3.36,broken clouds
678,Lahij,YE,13.17,44.58,73.56,73,0,5.59,clear sky
679,Port Charlotte,US,26.98,-82.09,81.0,88,90,14.99,light rain
680,Benguela,AO,-12.58,13.41,80.6,69,20,6.93,few clouds
681,Kommunar,RU,59.62,30.39,42.8,75,75,17.9,broken clouds
682,Banepa,NP,27.63,85.52,55.4,82,20,3.36,few clouds
683,Northam,GB,51.03,-4.22,55.99,94,100,7.0,overcast clouds
684,Marzuq,YE,14.4,46.47,67.87,54,0,2.57,clear sky
685,Kutum,SD,14.2,24.67,75.27,25,2,6.42,clear sky
686,Mercedes,AR,-34.65,-59.43,77.0,46,100,1.99,overcast clouds
687,Macusani,PE,-14.08,-70.43,50.38,50,52,8.66,light rain
688,Samoylovka,RU,51.18,43.71,35.78,80,0,6.51,clear sky
689,Borodyanka,UA,50.64,29.92,46.4,100,100,4.47,overcast clouds
690,Severomuysk,RU,56.15,113.43,20.35,97,32,2.89,scattered clouds
691,Nara,JP,34.69,135.8,51.01,56,38,6.46,scattered clouds
692,Dunedin,NZ,-45.87,170.5,50.0,81,51,1.01,broken clouds
693,Altamira,BR,-3.2,-52.21,89.6,62,75,6.93,broken clouds
694,Baghdad,IQ,33.34,44.4,69.8,64,40,4.7,scattered clouds
695,Komsomolskoye,RU,55.26,47.55,33.19,90,100,14.5,overcast clouds
696,Sao Gabriel Da Cachoeira,BR,-0.13,-67.09,94.73,46,97,1.99,overcast clouds
697,Buraydah,SA,26.33,43.98,75.2,60,90,29.97,overcast clouds
698,Barberton,ZA,-25.79,31.05,82.4,58,0,10.29,clear sky
699,Ouro Fino,BR,-22.28,-46.37,87.8,31,20,4.36,few clouds
700,Teacapan,MX,22.55,-105.75,85.37,58,0,1.63,clear sky
701,Nagato,JP,34.38,131.2,51.8,66,40,6.93,scattered clouds
702,Kismayo,SO,-0.36,42.55,81.66,75,68,15.01,light rain
703,Grand Forks,US,47.94,-97.43,30.2,58,75,11.41,broken clouds
704,Athabasca,CA,54.72,-113.29,8.6,84,12,3.36,few clouds
705,Chino Valley,US,34.76,-112.45,37.0,80,75,3.36,broken clouds
706,Vila Do Maio,CV,15.13,-23.22,84.2,62,0,23.04,clear sky
707,Bada,RU,51.39,109.87,28.58,92,0,3.53,clear sky
708,Beboto,TD,8.27,16.94,81.18,37,40,3.24,scattered clouds
709,Arawa,PG,-6.21,155.54,77.83,81,100,0.83,overcast clouds
710,Gornopravdinsk,RU,60.05,69.9,28.96,98,99,8.66,overcast clouds
711,Havre-Saint-Pierre,CA,50.23,-63.6,32.0,90,90,6.93,overcast clouds
712,Sattahip,TH,12.67,100.9,77.0,73,20,8.05,few clouds
713,Sterling,US,39.01,-77.43,72.0,72,1,4.36,clear sky
714,Kainantu,PG,-6.29,145.87,58.5,94,36,1.45,scattered clouds
715,Montelibano,CO,7.98,-75.42,83.39,80,86,3.96,moderate rain
716,Barguzin,RU,53.62,109.62,30.78,93,44,3.58,scattered clouds
717,Udachnyy,RU,66.42,112.4,10.4,85,90,11.18,snow
718,Holme,DK,56.11,10.17,48.2,87,82,5.82,broken clouds
719,Boma,GH,7.08,-2.17,83.62,67,100,1.32,overcast clouds
720,Bintulu,MY,3.17,113.03,77.0,88,40,6.93,scattered clouds
721,Les Cayes,HT,18.2,-73.75,82.33,80,80,10.02,broken clouds
722,Grindavik,IS,63.84,-22.43,46.4,93,90,20.8,light intensity drizzle
723,Basoko,CD,1.24,23.62,73.74,92,79,4.45,broken clouds
724,Fukue,JP,32.69,128.84,58.91,51,14,16.89,few clouds
725,Kupang,ID,-10.17,123.58,81.3,77,100,8.95,overcast clouds
726,Iranshahr,IR,27.2,60.68,73.4,18,0,6.29,clear sky
727,Teshie,GH,5.58,-0.11,84.2,79,20,10.29,few clouds
728,Ilanskiy,RU,56.24,96.06,35.33,96,100,11.03,light rain
729,Maine-Soroa,NE,13.21,12.02,82.17,17,0,9.22,clear sky
730,Road Town,VG,18.42,-64.62,86.0,74,40,12.75,scattered clouds
731,Waipawa,NZ,-41.41,175.52,50.0,100,100,29.97,moderate rain
732,Marsa Matruh,EG,31.35,27.25,68.0,60,75,9.17,broken clouds
733,Sabang,ID,5.89,95.32,81.39,77,96,5.12,overcast clouds
734,San Bartolome De Tirajana,ES,27.92,-15.57,73.4,64,20,17.22,few clouds
735,Yuzhou,CN,34.16,113.46,48.2,66,0,2.24,clear sky
736,Ajdabiya,LY,30.76,20.23,68.13,62,0,7.87,clear sky
737,Dabakala,CI,8.37,-4.43,88.05,50,99,1.77,overcast clouds
738,Sheopur,IN,25.67,76.7,66.96,27,0,3.47,clear sky
739,Vieux-Habitants,GP,16.06,-61.77,82.4,83,100,11.41,overcast clouds
740,Baie-Comeau,CA,49.22,-68.15,37.4,86,90,8.05,overcast clouds
741,Yatou,CN,37.15,122.38,46.22,57,0,3.22,clear sky
742,Angra Dos Reis,BR,-23.01,-44.32,75.96,78,51,5.55,broken clouds
743,Penzance,GB,50.12,-5.54,55.4,100,75,14.99,mist
744,Mvuma,ZW,-19.28,30.53,83.8,25,80,9.78,broken clouds
745,Huarmey,PE,-10.07,-78.15,69.94,61,74,11.45,broken clouds
746,Coachella,US,33.68,-116.17,55.0,50,1,4.7,clear sky
747,Nuuk,GL,64.18,-51.72,21.2,57,75,19.46,broken clouds
748,San-Pedro,CI,4.75,-6.64,81.81,76,90,7.65,overcast clouds
749,Kyaikkami,MM,16.08,97.57,79.07,67,0,8.7,clear sky
750,Rajanpur,PK,29.1,70.33,66.07,25,20,2.71,few clouds
751,Hambantota,LK,6.12,81.12,77.0,100,40,4.7,thunderstorm
752,Lasem,ID,-6.69,111.45,80.51,77,99,3.31,moderate rain
753,Leshukonskoye,RU,64.9,45.76,29.95,97,100,6.69,overcast clouds
754,Odweyne,SO,9.41,45.06,75.18,59,9,15.26,clear sky
755,Abu Dhabi,AE,24.47,54.37,82.4,74,0,8.05,clear sky
756,Bako,ET,5.78,36.57,64.8,89,7,3.38,light rain
757,Dobra,RO,44.78,25.72,50.0,100,90,3.36,mist
758,Wasilla,US,61.58,-149.44,32.0,92,90,1.97,snow
759,Kiama,AU,-34.68,150.87,57.0,77,14,5.41,few clouds
760,Senador Jose Porfirio,BR,-2.59,-51.95,90.07,51,33,1.5,scattered clouds
761,Big Rapids,US,43.7,-85.48,73.4,49,1,10.29,clear sky
762,Yuci,CN,37.68,112.73,35.6,59,0,2.24,clear sky
763,La Palma,US,33.85,-118.05,53.01,62,20,4.7,few clouds
764,Omboue,GA,-1.57,9.26,76.93,87,89,6.33,overcast clouds
765,Abilene,US,32.45,-99.73,73.99,68,40,19.46,scattered clouds
766,Awjilah,LY,29.11,21.29,64.45,63,25,6.85,scattered clouds
767,Karpathos,GR,35.51,27.21,71.6,78,40,11.41,scattered clouds
768,Makat,KZ,47.65,53.35,43.03,62,44,8.32,scattered clouds
769,Tiruchchendur,IN,8.48,78.12,83.03,75,73,16.96,broken clouds
770,Svetlogorsk,BY,52.63,29.73,43.12,79,84,7.14,broken clouds
771,Radhanpur,IN,23.83,71.6,77.61,29,0,3.27,clear sky
772,Eyl,SO,7.98,49.82,79.74,74,0,18.88,clear sky
773,Christiana,ZA,-27.91,25.16,80.2,34,67,9.69,broken clouds
774,Tura,IN,25.52,90.22,66.22,71,0,3.4,clear sky
775,Jiaocheng,CN,24.68,116.14,59.4,57,10,3.58,light rain
776,Thinadhoo,MV,0.53,72.93,83.97,72,97,12.53,overcast clouds
777,Homer,US,59.64,-151.55,41.0,52,1,14.99,clear sky
778,Gushikawa,JP,26.35,127.87,69.8,68,90,11.41,overcast clouds
779,Ocamonte,CO,6.34,-73.12,77.72,56,31,3.49,scattered clouds
780,Sioux Lookout,CA,50.1,-91.92,41.0,64,90,10.29,overcast clouds
781,Joshimath,IN,30.57,79.57,48.61,48,2,2.55,clear sky
782,Neuquen,AR,-38.95,-68.06,75.2,53,40,5.82,scattered clouds
783,Talakan,RU,50.32,130.37,8.55,90,1,4.54,clear sky
784,Matamoros,MX,25.53,-103.25,73.4,27,5,1.86,clear sky
785,Oksfjord,NO,70.24,22.35,39.2,80,75,32.21,shower rain
786,Amurrio,ES,43.05,-3.0,68.0,52,40,6.93,scattered clouds
787,Kyra,RU,49.58,111.98,26.08,91,0,2.39,clear sky
788,Alice Springs,AU,-23.7,133.88,82.4,15,62,9.17,broken clouds
789,Zatoka,UA,46.07,30.47,48.2,87,90,8.95,overcast clouds
790,Bogorodskoye,RU,56.55,37.88,33.4,90,7,15.19,clear sky
791,Verkhnevilyuysk,RU,63.45,120.32,7.14,92,99,9.13,overcast clouds
792,Magdagachi,RU,53.45,125.8,1.98,91,0,0.94,clear sky
793,Guiglo,CI,6.55,-7.5,83.7,67,74,3.83,light rain
794,Bull Savanna,JM,17.89,-77.59,80.64,80,15,6.96,few clouds
795,La Sarre,CA,48.8,-79.2,59.83,81,36,12.91,scattered clouds
796,Calabozo,VE,8.92,-67.43,86.99,71,94,2.28,overcast clouds
797,Bahir Dar,ET,11.59,37.39,65.25,69,6,4.59,clear sky
798,Umtata,ZA,-31.59,28.78,53.6,100,100,6.93,light rain
799,Nushki,PK,29.55,66.02,54.07,32,0,3.13,clear sky
800,Awbari,LY,26.59,12.78,63.0,46,0,5.37,clear sky
801,Jagtial,IN,18.8,78.93,63.91,54,0,3.15,clear sky
802,New London,US,41.48,-72.07,73.0,67,1,5.82,clear sky
803,Aklavik,CA,68.22,-135.01,-2.2,84,75,9.17,light snow
804,Tame,CO,6.46,-71.73,87.35,58,25,2.64,scattered clouds
805,Bandarbeyla,SO,9.49,50.81,77.52,83,0,16.69,clear sky
806,Waddan,LY,29.16,16.14,63.86,44,0,7.34,clear sky
807,Saint Anthony,US,45.02,-93.22,64.99,88,90,17.22,mist
808,Nanning,CN,22.82,108.32,60.8,77,0,4.47,light rain
809,Broken Hill,AU,-31.95,141.43,78.8,29,75,11.41,broken clouds
810,Pierre,US,44.37,-100.35,30.0,50,90,19.46,overcast clouds
811,Stephenville,US,32.22,-98.2,66.99,72,90,18.88,overcast clouds
812,Roanne,FR,46.0,4.0,59.0,82,0,4.7,clear sky
813,Kargat,RU,55.2,80.28,34.81,95,100,22.35,overcast clouds
814,Loanda,AO,-8.84,13.23,78.8,78,40,8.05,scattered clouds
815,Lake Havasu City,US,34.48,-114.32,53.6,37,1,4.7,clear sky
816,Bereda,ES,43.27,-7.54,57.0,86,36,10.0,scattered clouds
817,Ojinaga,MX,29.57,-104.42,78.8,31,1,14.99,clear sky
818,Oga,IT,46.46,10.35,55.0,48,0,5.82,clear sky
819,Zhuanghe,CN,39.7,122.99,39.7,64,0,3.56,clear sky
820,Itanagar,IN,27.1,93.62,63.05,54,0,3.76,clear sky
821,Mwense,ZM,-10.38,28.7,81.03,28,91,2.42,overcast clouds
822,Belaya Gora,RU,68.53,146.42,-18.72,89,99,0.69,overcast clouds
823,Kingston,JM,18.0,-76.79,86.0,74,20,6.93,light rain
824,Tuzha,RU,57.61,47.94,31.06,96,100,11.9,light snow
825,Barcelona,ES,41.39,2.16,64.99,72,0,10.29,clear sky
826,Churhat,IN,24.43,81.67,64.11,32,0,1.79,clear sky
827,Kadhan,PK,24.48,68.99,80.08,29,0,7.94,clear sky
828,Nanakuli,US,21.39,-158.15,78.8,83,1,3.36,clear sky
829,Gloggnitz,AT,47.67,15.94,43.0,96,1,1.99,clear sky
830,Samdari,IN,25.82,72.58,76.15,22,0,1.19,clear sky
831,Takayama,JP,36.13,137.25,46.0,94,95,1.01,overcast clouds
832,Port Hedland,AU,-20.32,118.57,77.0,78,0,12.75,clear sky
833,Veraval,IN,20.9,70.37,79.32,56,0,1.12,clear sky
834,Elizabeth City,US,36.29,-76.25,77.0,61,1,9.17,clear sky
835,Ust-Omchug,RU,61.15,149.63,-4.63,87,97,5.68,overcast clouds
836,Tessalit,ML,20.2,1.01,83.44,15,21,10.63,few clouds
837,Milkovo,RU,54.72,158.62,19.76,90,73,2.82,broken clouds
838,Robertsport,LR,6.75,-11.37,81.46,73,44,7.36,scattered clouds
839,Luwuk,ID,-0.95,122.79,77.27,67,91,3.04,overcast clouds
840,Iaciara,BR,-14.1,-46.63,90.91,40,81,2.84,broken clouds
841,Yumen,CN,40.28,97.2,30.87,81,0,2.64,clear sky
842,Bloemfontein,ZA,-29.12,26.21,78.8,39,20,6.93,few clouds
843,Choma,ZM,-16.81,26.95,82.22,21,80,5.12,broken clouds
844,Fare,PF,-16.7,-151.02,78.75,81,99,16.69,overcast clouds
845,Bar Harbor,US,44.39,-68.2,55.99,87,40,9.17,scattered clouds
846,Cowra,AU,-33.83,148.68,48.99,84,0,1.01,clear sky
847,Krasnoarmeysk,RU,51.02,45.7,35.15,100,0,8.1,clear sky
848,Lensk,RU,60.73,114.93,33.67,91,100,7.25,overcast clouds
849,Bendigo,AU,-36.77,144.28,62.01,37,100,7.9,overcast clouds
850,Santa Fe,AR,-31.63,-60.7,63.81,87,100,7.54,overcast clouds
851,Agadir,MA,30.42,-9.6,71.6,53,0,10.29,clear sky
852,Shubarshi,KZ,48.59,57.19,36.39,79,37,8.55,scattered clouds
853,Helena,US,46.59,-112.04,21.99,78,90,3.29,overcast clouds
854,Guangyuan,CN,32.44,105.82,63.0,96,98,2.55,overcast clouds
855,Mandan,US,46.83,-100.89,24.8,73,20,23.04,few clouds
856,Barranca,PE,-10.75,-77.77,68.41,65,91,11.77,overcast clouds
857,Lapi,PH,17.72,121.9,74.34,87,100,2.1,heavy intensity rain
858,Riwaka,NZ,-41.08,173.0,52.0,60,97,6.91,overcast clouds
859,Poshekhonye,RU,58.5,39.14,36.45,88,93,16.31,moderate rain
860,Salym,RU,60.06,71.48,28.58,98,100,7.52,overcast clouds
861,Onega,RU,63.91,38.14,35.29,95,100,12.68,overcast clouds
862,Castanos,MX,26.78,-101.42,80.01,42,0,1.01,clear sky
863,Serenje,ZM,-13.23,30.24,74.73,32,28,2.86,scattered clouds
864,Bosaso,SO,11.28,49.18,79.57,77,16,7.2,few clouds
865,Puerto Madryn,AR,-42.77,-65.04,76.23,44,100,14.79,overcast clouds
866,Campos,BR,-21.75,-41.3,84.2,66,75,6.24,broken clouds
867,Kalanaur,IN,28.83,76.4,68.27,23,1,0.94,clear sky
868,Los Lunas,US,34.81,-106.73,57.0,34,40,13.87,scattered clouds
869,Lakhtar,IN,22.85,71.78,77.63,30,0,5.82,clear sky
870,Lethem,GY,3.38,-59.8,90.59,53,46,4.7,scattered clouds
871,Kasongo-Lunda,CD,-6.47,16.82,74.55,91,100,2.89,light rain
872,Houma,US,29.6,-90.72,78.01,88,75,11.41,broken clouds
873,Evensk,RU,61.95,159.23,4.05,85,66,11.18,broken clouds
874,Ingham,US,42.6,-84.38,71.6,49,1,8.05,clear sky
875,Kawai,JP,34.23,135.85,57.2,62,40,18.34,scattered clouds
876,Tara,RU,56.89,74.37,32.41,96,91,13.38,overcast clouds
877,San Jose Del Castillo,MX,20.53,-103.23,68.0,52,5,2.24,clear sky
878,Pathein,MM,16.78,94.73,74.17,91,0,5.48,clear sky
879,San Miguel,SV,13.48,-88.18,80.6,83,40,1.14,scattered clouds
880,Minab,IR,27.15,57.08,80.6,78,0,6.93,haze
881,Amapa,BR,1.0,-52.0,94.8,37,0,6.96,clear sky
882,Egersund,NO,58.45,6.0,46.0,87,0,12.75,clear sky
883,Esso,RU,55.93,158.7,5.05,79,1,1.77,clear sky
884,Miyako,JP,39.64,141.95,37.24,76,0,8.1,clear sky
885,Tahe,CN,52.33,124.73,8.24,91,77,2.66,broken clouds
886,Nouadhibou,MR,20.93,-17.03,75.2,57,0,17.22,clear sky
887,Wenling,CN,28.37,121.36,54.0,78,12,7.47,few clouds
888,Kudahuvadhoo,MV,2.67,72.89,84.29,72,96,9.31,overcast clouds
889,Jiangyou,CN,31.77,104.72,63.54,68,87,0.25,overcast clouds
890,Storforshei,NO,66.4,14.52,37.0,93,40,3.36,scattered clouds
891,Haines Junction,CA,60.75,-137.51,32.0,93,89,16.11,light snow
892,Vostok,RU,46.49,135.88,4.21,95,92,4.23,overcast clouds
893,Brae,GB,60.4,-1.35,51.8,93,75,6.93,light rain
894,Bafra,TR,41.57,35.91,53.6,81,20,4.34,few clouds
895,San Ramon,US,37.78,-121.98,48.0,56,1,4.7,clear sky
896,Ileza,RU,61.05,43.9,30.25,98,100,7.14,overcast clouds
897,Marevo,RU,57.31,32.08,39.58,84,88,12.68,light rain
898,Lukulu,ZM,-14.37,23.24,85.53,26,54,2.89,broken clouds
899,Oktyabrskiy,RU,54.48,53.47,32.09,93,99,10.4,overcast clouds
900,Shenavan,AM,40.05,43.93,44.6,70,27,2.24,scattered clouds
901,Aasiaat,GL,68.71,-52.87,10.0,87,93,5.08,overcast clouds
902,Asfi,MA,32.3,-9.24,67.5,77,0,18.95,clear sky
903,Renigunta,IN,13.65,79.52,78.8,65,20,4.32,few clouds
904,Tres Arroyos,AR,-38.37,-60.28,81.77,22,96,11.59,overcast clouds
905,Oistins,BB,13.07,-59.53,86.0,74,40,14.99,shower rain
906,Talagang,PK,32.93,72.42,61.48,30,95,1.54,overcast clouds
907,Bagan,RU,54.1,77.66,37.94,88,100,19.01,light rain
908,Ouadda,CF,8.08,22.4,75.47,50,65,3.67,broken clouds
909,Alihe,CN,50.57,123.72,16.03,88,91,2.19,overcast clouds
910,Lubango,AO,-14.92,13.49,84.2,46,40,11.41,scattered clouds
911,Ende,ID,-8.84,121.66,78.96,75,100,2.68,overcast clouds
912,Zhezkazgan,KZ,47.8,67.71,39.2,81,100,26.06,overcast clouds
913,Sept-Iles,CA,50.2,-66.38,34.0,84,90,3.36,overcast clouds
914,Padang,ID,-0.95,100.35,77.83,78,100,2.71,overcast clouds
915,Nikolsk,RU,53.72,46.07,31.14,96,0,10.83,clear sky
916,Taunggyi,MM,20.78,97.03,57.18,91,0,1.45,clear sky
917,East Wenatchee Bench,US,47.43,-120.28,26.6,73,1,3.36,clear sky
918,Jina,RO,45.78,23.68,43.0,100,79,3.36,fog
919,Shubarkuduk,KZ,49.14,56.49,35.11,84,0,7.78,clear sky
920,Thunder Bay,CA,48.4,-89.32,60.8,82,90,10.29,overcast clouds
921,Cozumel,MX,20.51,-86.95,82.99,78,75,16.11,broken clouds
922,Benalla,AU,-36.55,145.98,50.0,100,0,3.36,clear sky
923,Edson,CA,53.58,-116.44,8.6,84,1,3.36,clear sky
924,Spokane,US,47.62,-117.37,28.99,100,1,5.97,clear sky
925,Vanavara,RU,60.34,102.28,32.34,96,100,9.91,overcast clouds
926,Choix,MX,26.71,-108.32,78.89,61,28,4.29,light rain
927,Roros,NO,62.57,11.38,32.0,83,75,3.36,broken clouds
928,Labuhan,ID,-6.88,112.21,80.06,79,100,6.35,overcast clouds
929,Kargasok,RU,59.06,80.86,33.87,92,98,13.67,overcast clouds
930,Mayumba,GA,-3.43,10.66,75.72,86,100,1.61,overcast clouds
931,Visby,SE,57.64,18.3,48.2,81,75,5.82,broken clouds
932,Hvide Sande,DK,56.0,8.13,44.01,78,23,3.0,few clouds
933,Ulladulla,AU,-35.35,150.47,51.8,100,2,3.36,clear sky
934,Skegness,GB,53.14,0.34,57.0,93,75,11.41,broken clouds
935,Tripoli,LY,32.88,13.19,69.66,60,13,6.91,few clouds
936,Cabra,ES,37.47,-4.44,66.0,64,28,2.91,scattered clouds
937,Chabahar,IR,25.29,60.64,78.8,88,0,10.76,mist
938,Mohpa,IN,21.32,78.82,64.4,63,0,4.27,haze
939,Ramnagar,IN,29.4,79.12,62.74,43,0,4.81,clear sky
940,Ljungby,SE,56.83,13.94,44.01,100,99,3.91,mist
941,Camara De Lobos,PT,32.63,-16.97,68.0,60,40,10.29,scattered clouds
942,Yeppoon,AU,-23.13,150.73,66.2,68,40,8.05,scattered clouds
943,Orotukan,RU,62.27,151.7,-5.37,89,99,2.28,overcast clouds
944,Kodinsk,RU,58.69,99.18,34.39,90,100,6.31,overcast clouds
945,Okhotsk,RU,59.38,143.3,2.41,87,12,20.02,few clouds
946,Calella,ES,41.62,2.67,64.0,89,100,6.98,overcast clouds
947,Ystad,SE,55.43,13.82,48.2,81,90,9.17,overcast clouds
948,Vimperk,CZ,49.06,13.78,39.99,80,9,1.99,clear sky
949,Steinbach,DE,50.17,8.57,55.0,87,0,3.36,clear sky
950,Kaifeng,CN,34.79,114.35,48.2,66,0,2.24,clear sky
951,Longonjo,AO,-12.91,15.25,75.61,51,67,4.27,broken clouds
952,Ca Mau,VN,9.18,105.15,75.18,85,100,3.53,overcast clouds
953,Saint-Augustin,CA,51.23,-58.65,36.14,73,100,7.31,overcast clouds
954,Okha,RU,53.57,142.95,29.35,97,100,17.47,overcast clouds
955,Rutana,BI,-3.87,30.1,62.62,91,77,3.74,broken clouds
956,Golden,US,39.76,-105.22,36.0,78,90,3.36,overcast clouds
957,Blagoyevo,RU,63.37,47.92,30.15,97,100,6.82,overcast clouds
958,Pacific Grove,US,36.62,-121.92,48.99,56,1,3.36,clear sky
959,Manitouwadge,CA,49.12,-85.84,53.6,100,90,4.7,fog
960,Dallas,US,32.77,-96.78,73.0,78,90,10.29,overcast clouds
961,Cairo,EG,30.06,31.25,69.8,64,40,12.75,scattered clouds
962,Harbour Breton,CA,47.48,-55.8,42.01,100,99,14.34,overcast clouds
963,Easley,US,34.83,-82.6,73.99,64,40,9.17,scattered clouds
964,Boende,CD,-0.22,20.87,68.81,98,100,2.17,overcast clouds
965,Loudeac,FR,48.18,-2.75,59.0,82,90,4.7,overcast clouds
966,Mandalgovi,MN,45.76,106.27,32.7,76,31,8.43,scattered clouds
967,Paamiut,GL,61.99,-49.67,21.99,88,100,30.44,overcast clouds
968,Terra Santa,BR,-2.1,-56.49,97.57,33,100,6.49,overcast clouds
969,Alpine,US,32.84,-116.77,54.0,93,40,2.57,scattered clouds
970,Kilindoni,TZ,-7.91,39.67,80.87,80,82,17.18,light rain
971,Zhanaozen,KZ,43.3,52.8,49.06,88,29,4.81,scattered clouds
972,Hurghada,EG,27.26,33.81,77.0,38,0,4.92,clear sky
973,Kommunisticheskiy,RU,61.68,64.48,27.79,95,88,6.64,overcast clouds
974,Riachao Das Neves,BR,-11.75,-44.91,89.31,36,84,6.64,broken clouds
975,Ridgecrest,US,35.62,-117.67,44.01,33,0,1.99,clear sky
976,Vestmanna,FO,62.16,-7.17,51.8,93,89,12.75,overcast clouds
977,Khon Buri,TH,14.53,102.25,66.38,85,24,5.99,light rain
978,Kidal,ML,18.44,1.41,82.53,15,0,11.92,clear sky
979,Puerto Ayacucho,VE,5.66,-67.62,88.03,66,48,1.72,moderate rain
980,Guanica,PR,17.97,-66.91,86.0,68,100,3.0,overcast clouds
981,Esperance,AU,-33.87,121.9,55.4,100,90,5.82,light rain
982,Pyay,MM,18.82,95.22,73.11,82,0,5.12,clear sky
983,Yokote,JP,39.3,140.57,37.31,84,98,8.21,light rain
984,Koumra,TD,8.91,17.55,83.68,34,46,2.64,scattered clouds
985,Filingue,NE,14.35,3.32,88.45,13,77,7.36,broken clouds
986,Palmas,BR,-10.21,-48.36,93.2,46,40,10.29,scattered clouds
987,Bajil,YE,15.06,43.29,83.44,54,0,6.62,clear sky
988,Saint-Paul,RE,-21.01,55.27,71.6,88,75,12.75,broken clouds
989,Arlit,NE,18.74,7.39,81.1,18,0,8.01,clear sky
990,Invercargill,NZ,-46.4,168.35,39.78,92,5,3.0,clear sky
991,Barreirinhas,BR,-2.75,-42.83,90.9,53,24,13.49,few clouds
992,Bojnurd,IR,37.47,57.33,42.8,51,0,2.24,clear sky
993,Sarwar,IN,26.07,75.0,66.42,26,0,2.59,clear sky
994,Atar,MR,20.52,-13.05,96.48,10,0,11.54,clear sky
995,Saint-Ambroise,CA,48.55,-71.33,53.6,81,75,3.36,broken clouds
996,Lata,PT,40.16,-8.33,64.0,85,17,4.0,few clouds
997,Champerico,GT,14.3,-91.92,78.8,94,40,4.7,scattered clouds
998,East Angus,CA,45.48,-71.67,62.6,55,20,8.05,few clouds
999,Natal,BR,-5.79,-35.21,78.8,94,40,16.11,shower rain
1000,Pangoa,PE,-12.12,-73.0,93.83,32,59,6.31,broken clouds
1001,Malkara,TR,40.89,26.9,64.0,34,97,11.34,overcast clouds
1002,Rockport,US,28.02,-97.05,78.8,78,1,8.05,clear sky
1003,Mizque,BO,-17.94,-65.34,80.19,34,25,11.36,light rain
1004,Cangucu,BR,-31.39,-52.68,66.2,93,90,14.99,mist
1005,Seoul,KR,37.57,126.98,41.0,69,1,2.51,clear sky
1006,Cukai,MY,4.25,103.42,77.0,94,100,2.24,overcast clouds
1007,Jamame,SO,0.07,42.75,80.26,77,35,10.29,scattered clouds
1008,Hundested,DK,55.97,11.87,48.99,100,98,1.01,overcast clouds
1009,Anahuac,MX,27.23,-100.15,73.4,83,90,9.17,overcast clouds
1010,Kosh-Agach,RU,50.0,88.67,16.02,85,13,4.61,few clouds
1011,Laguna,US,38.42,-121.42,43.0,60,1,3.36,clear sky
1012,Ceske Budejovice,CZ,48.97,14.47,41.0,93,7,5.01,clear sky
1013,Ketchikan,US,55.34,-131.65,46.4,93,90,5.82,light rain
1014,Pampierstad,ZA,-27.78,24.69,82.58,29,64,13.22,broken clouds
1015,Male,MV,4.17,73.51,84.2,79,75,4.7,broken clouds
1016,Gawler,AU,-34.6,138.73,79.0,28,0,8.99,light rain
1017,Singosari,ID,-7.89,112.67,70.83,82,100,2.08,overcast clouds
1018,Praya,CV,14.92,-23.51,84.2,62,0,23.04,clear sky
1019,Nakhon Sawan,TH,15.7,100.08,71.8,81,19,1.41,few clouds
1020,Ust-Kuyga,RU,70.02,135.6,-24.63,83,3,8.63,clear sky
1021,Lumeje,AO,-11.55,20.78,81.07,45,81,9.89,broken clouds
1022,Marystown,CA,47.17,-55.15,42.01,100,97,10.42,light rain
1023,Zabol,AF,32.25,67.25,49.08,37,56,12.57,broken clouds
1024,Hannibal,US,39.71,-91.36,72.0,60,75,14.99,broken clouds
1025,Saint-Joseph,RE,-21.37,55.62,75.2,73,0,10.29,clear sky
1026,Sambava,MG,-14.27,50.17,75.72,83,51,11.39,light rain
1027,Poyarkovo,RU,49.6,128.68,9.21,92,0,6.44,clear sky
1028,Ayan,RU,56.45,138.17,6.06,88,0,14.14,clear sky
1029,Tecoanapa,MX,16.52,-98.75,85.57,64,29,5.06,scattered clouds
1030,Lingao,CN,19.91,109.69,72.25,67,77,13.31,light rain
1031,Kumylzhenskaya,RU,49.88,42.59,35.01,74,0,4.54,clear sky
1032,Kribi,CM,2.95,9.92,79.05,83,81,8.14,broken clouds
1033,Agucadoura,PT,41.43,-8.78,62.6,82,20,4.7,few clouds
1034,Ziro,IN,27.63,93.83,43.68,77,0,2.46,clear sky
1035,Komyshuvakha,UA,47.72,35.53,44.6,87,75,4.47,broken clouds
1036,Robat Karim,IR,35.48,51.08,59.0,44,0,6.93,clear sky
1037,West Bay,KY,19.37,-81.42,81.0,88,75,12.75,broken clouds
1038,Slave Lake,CA,55.28,-114.77,6.8,92,75,5.82,broken clouds
1039,Melong,CM,5.12,9.96,70.9,87,87,0.87,light rain
1040,Catia La Mar,VE,10.6,-67.03,86.18,65,92,3.13,overcast clouds
1041,Alingsas,SE,57.93,12.53,45.0,81,75,4.7,broken clouds
1042,Camacha,PT,33.08,-16.33,66.2,68,40,9.17,scattered clouds
1043,Ushumun,RU,52.78,126.53,0.01,92,0,2.15,clear sky
1044,Maralal,KE,1.1,36.7,61.95,83,27,9.26,scattered clouds
1045,Union De Tula,MX,19.97,-104.27,75.69,43,0,2.37,clear sky
1046,Ormond Beach,US,29.29,-81.06,75.2,88,90,17.22,moderate rain
1047,Ponta Delgada,PT,37.73,-25.67,66.2,63,75,13.87,broken clouds
1048,Marihatag,PH,8.79,126.3,77.67,86,100,6.8,overcast clouds
1049,Katangli,RU,51.71,143.23,19.36,88,98,16.89,overcast clouds
1050,Boa Vista,BR,2.82,-60.67,87.8,58,75,4.7,broken clouds
1051,Shuangcheng,CN,45.35,126.28,14.0,78,0,4.47,clear sky
1052,Totskoye,RU,52.52,52.76,31.87,95,51,7.14,broken clouds
1053,Richmond,US,37.55,-77.46,75.99,53,20,1.88,few clouds
1054,Skibbereen,IE,51.55,-9.27,51.8,100,40,6.93,scattered clouds
1055,Jeremoabo,BR,-10.07,-38.48,85.06,50,58,10.71,broken clouds
1056,Kemijarvi,FI,66.71,27.43,30.54,96,21,7.34,few clouds
1057,Tombouctou,ML,20.0,-3.0,89.19,13,45,6.62,scattered clouds
1058,Bara,NG,10.37,10.73,89.6,25,46,4.7,haze
1059,Ganta,LR,7.3,-8.53,83.41,64,81,1.36,broken clouds
1060,Yongzhou,CN,26.46,111.6,57.69,60,0,4.03,clear sky
1061,Terrace,CA,54.52,-128.6,32.0,90,90,3.36,light snow
1062,Biak,ID,-0.91,122.88,76.73,74,92,1.88,overcast clouds
1063,Yarmouth,US,41.71,-70.23,71.6,43,1,8.05,clear sky
1064,Innisfail,AU,-17.53,146.03,72.55,88,69,5.93,broken clouds
1065,Miraflores,MX,19.22,-98.81,75.2,50,5,5.82,clear sky
1066,Joliette,CA,46.02,-73.45,63.0,59,47,9.17,scattered clouds
1067,Mazyr,BY,52.05,29.25,45.16,80,95,5.03,overcast clouds
1068,Maiduguri,NG,11.85,13.16,81.55,28,39,11.77,scattered clouds
1069,Saint-Prosper,CA,46.21,-70.48,62.6,59,3,4.7,clear sky
1070,Flinders,AU,-34.58,150.86,57.0,80,11,1.01,few clouds
1071,Satipo,PE,-11.25,-74.64,100.71,23,51,2.04,broken clouds
1072,Rio Bueno,CL,-40.32,-72.97,60.8,72,75,6.93,broken clouds
1073,Tvoroyri,FO,61.56,-6.81,51.8,93,79,12.75,broken clouds
1074,Osakarovka,KZ,50.56,72.57,34.2,95,100,28.03,overcast clouds
1075,Tadine,NC,-21.55,167.88,70.21,74,22,12.91,few clouds
1076,Dombas,NO,62.07,9.12,34.52,83,99,2.19,overcast clouds
1077,Karabulak,RU,43.3,44.9,42.8,70,0,8.95,clear sky
1078,Govindgarh,IN,27.5,76.98,66.06,25,0,1.01,clear sky
1079,Aguie,NE,13.51,7.78,81.9,16,84,7.11,broken clouds
1080,Markova,UA,48.68,24.41,42.8,100,90,4.47,light intensity drizzle
1081,Livingston,GB,55.9,-3.52,51.01,100,90,4.7,fog
1082,Nacozari,MX,25.34,-108.26,82.99,69,0,1.99,clear sky
1083,Zandvoort,NL,52.37,4.53,57.99,82,0,3.36,clear sky
1084,Khunti,IN,23.08,85.28,64.4,72,0,6.44,haze
1085,Tsabong,BW,-26.02,22.4,86.47,22,52,18.25,broken clouds
1086,Riohacha,CO,11.54,-72.91,85.77,67,29,6.62,scattered clouds
1087,Osmena,PH,10.52,119.93,82.08,80,73,5.35,moderate rain
1088,Shchebetovka,UA,44.93,35.15,49.66,90,21,5.93,few clouds
1089,Balclutha,NZ,-46.23,169.75,37.92,97,5,0.36,clear sky
1090,Santa Rosa De Aguan,HN,15.95,-85.72,78.8,83,75,2.24,broken clouds
1091,Stowe,US,40.25,-75.68,73.99,63,1,4.94,clear sky
1092,Danjiangkou,CN,32.54,111.51,48.99,58,0,3.0,clear sky
1093,Tecpan,GT,14.76,-90.99,73.4,64,40,4.7,haze
1094,Dudinka,RU,69.41,86.18,15.8,92,40,8.95,light snow
1095,Mayya,RU,61.73,130.28,-2.0,83,75,4.47,light snow
1096,Balikpapan,ID,-1.27,116.83,78.37,86,71,7.96,broken clouds
1097,Yuancheng,CN,36.65,107.79,44.78,59,0,3.47,clear sky
1098,Kharp,RU,66.8,65.81,11.39,93,88,4.43,overcast clouds
1099,Obo,CF,5.4,26.49,73.26,81,94,2.33,overcast clouds
1100,Floro,NO,61.6,5.03,50.0,76,0,12.75,clear sky
1101,Jhalawar,IN,24.6,76.15,67.89,25,0,2.19,clear sky
1102,Kabalo,CD,-6.05,26.92,76.68,77,94,3.58,light rain
1103,Fonte Boa,BR,-2.5,-66.27,82.85,74,100,1.86,moderate rain
1104,Yantal,RU,56.85,105.25,33.42,92,100,4.03,overcast clouds
1105,Tezu,IN,27.92,96.17,68.13,45,0,3.98,clear sky
1106,Dongsheng,CN,39.82,109.98,36.1,71,8,4.36,clear sky
1107,Qadirpur Ran,PK,30.29,71.67,69.8,64,7,6.11,smoke
1108,Inta,RU,66.03,60.17,19.81,98,98,5.5,overcast clouds
1109,Tessaoua,NE,13.76,7.99,82.71,15,34,7.56,scattered clouds
1110,Wufeng,CN,27.45,104.83,46.42,91,0,2.57,clear sky
1111,Jaru,BR,-10.44,-62.47,86.58,61,100,7.43,light rain
1112,Eldorado,BR,-23.79,-54.28,98.51,27,85,15.77,moderate rain
1113,Asyut,EG,27.18,31.18,75.2,44,0,13.87,clear sky
1114,Sladkovo,RU,55.53,70.34,32.02,97,94,13.0,overcast clouds
1115,Phalodi,IN,27.13,72.37,76.82,18,0,6.82,clear sky
1116,Torata,PE,-17.08,-70.84,72.66,22,15,11.43,few clouds
1117,Trincomalee,LK,8.57,81.23,81.81,80,99,18.81,moderate rain
1118,Wainwright,CA,52.84,-110.86,14.0,100,19,5.82,few clouds
1119,Beyneu,KZ,45.32,55.2,45.43,84,3,9.24,clear sky
1120,Stolin,BY,51.89,26.85,44.91,81,93,4.79,overcast clouds
1121,Ciudad Bolivar,VE,8.12,-63.55,85.84,68,86,8.7,light rain
1122,Nishihara,JP,26.18,127.76,69.8,64,75,12.75,broken clouds
1123,Lagos,NG,6.58,3.75,86.0,74,75,3.36,broken clouds
1124,Ilava,SK,49.0,18.24,43.0,100,0,1.21,clear sky
1125,Dasoguz,TM,41.84,59.97,39.2,54,0,4.7,clear sky
1126,Dali,CN,25.7,100.18,50.68,81,0,2.13,clear sky
1127,Vallenar,CL,-28.57,-70.76,85.69,25,6,11.65,clear sky
1128,Valparaiso,CL,-33.04,-71.63,60.8,77,20,8.05,fog
1129,Itatskiy,RU,56.07,89.04,33.69,89,67,13.96,broken clouds
1130,Araouane,ML,18.9,-3.53,89.6,13,0,8.03,clear sky
1131,Varzea Grande,BR,-15.65,-56.13,96.8,34,20,6.93,few clouds
1132,Tungor,RU,53.38,142.96,26.6,97,100,21.81,snow
1133,Port Blair,IN,11.67,92.75,80.76,83,0,9.6,light rain
1134,Byron Bay,AU,-28.65,153.62,60.8,93,90,3.36,overcast clouds
1135,Kodinar,IN,20.79,70.7,77.13,51,0,5.26,clear sky
1136,Solnechnyy,RU,50.72,136.63,10.92,87,97,2.84,overcast clouds
1137,Durban,ZA,-29.86,31.03,69.8,73,40,12.75,scattered clouds
1138,Bardiyah,LY,31.76,25.09,66.61,76,7,13.2,clear sky
1139,Gaya,IN,24.78,85.0,64.4,82,0,3.11,mist
1140,Puerto Colombia,CO,10.99,-74.95,86.0,70,40,6.93,scattered clouds
1141,Neath,GB,51.66,-3.8,57.0,91,95,1.01,light rain
1142,Jacareacanga,BR,-6.22,-57.75,94.68,44,83,4.94,broken clouds
1143,Sedlcany,CZ,49.66,14.43,42.01,58,0,4.12,clear sky
1144,Aranos,NA,-24.13,19.12,84.69,25,54,12.8,broken clouds
1145,Muisne,EC,0.6,-80.03,84.2,74,40,10.29,scattered clouds
1146,Vale,GE,41.62,42.87,50.0,93,0,2.24,clear sky
1147,Verkh-Usugli,RU,52.7,115.17,21.06,97,1,1.77,clear sky
1148,Calama,CL,-22.47,-68.93,75.2,9,0,17.22,clear sky
1149,Sembe,CG,1.65,14.58,72.77,86,55,0.34,broken clouds
1150,Dulce Grande,MX,23.0,-102.17,64.4,52,5,5.82,clear sky
1151,Maniitsoq,GL,65.42,-52.9,20.34,84,76,15.86,broken clouds
1152,Aguadilla,PR,18.43,-67.15,87.8,66,40,9.17,moderate rain
1153,Meadow Lake,US,34.8,-106.54,57.0,34,40,13.87,scattered clouds
1154,Wajir,KE,1.75,40.06,82.87,64,45,9.53,scattered clouds
1155,Meulaboh,ID,4.14,96.13,77.45,88,96,4.07,overcast clouds
1156,Santo Antonio Do Leverger,BR,-15.87,-56.08,96.8,34,20,6.93,light rain
1157,Ko Samui,TH,9.54,99.94,81.34,81,86,13.02,light rain
1158,Urrao,CO,6.32,-76.13,60.01,90,96,1.99,overcast clouds
1159,Mildura,AU,-34.2,142.15,77.0,29,40,11.41,light rain
1160,Guaymas,MX,27.93,-110.9,70.0,68,5,8.03,clear sky
1161,Bataipora,BR,-22.3,-53.27,100.83,26,30,10.0,moderate rain
1162,Sarakhs,IR,36.54,61.16,51.8,76,0,5.5,clear sky
1163,Oak Ridge,US,36.01,-84.27,75.99,64,1,3.36,clear sky
1164,Taft,IR,31.75,54.21,62.6,39,0,4.7,clear sky
1165,Pascagoula,US,30.37,-88.56,80.6,65,75,11.41,broken clouds
1166,Marrakesh,MA,31.63,-8.01,75.2,44,20,5.82,few clouds
1167,Dzhebariki-Khaya,RU,62.22,135.8,-17.28,86,0,0.89,clear sky
1168,Baturyn,UA,51.35,32.88,46.18,75,97,4.59,overcast clouds
1169,Porosozero,RU,62.72,32.73,32.59,92,18,9.73,few clouds
1170,Abha,SA,18.22,42.51,66.2,72,0,4.7,clear sky
1171,Keti Bandar,PK,24.14,67.45,78.4,63,0,6.44,clear sky
1172,Wanaka,NZ,-44.7,169.15,42.01,77,8,2.44,clear sky
1173,Mabaruma,GY,8.2,-59.78,82.62,87,31,4.72,light rain
1174,Ambilobe,MG,-13.2,49.05,78.26,71,46,3.89,scattered clouds
1175,Marmora,IT,44.46,7.09,59.0,67,51,2.24,broken clouds
1176,Lagunas,PE,-5.23,-75.68,88.93,64,96,1.05,light rain
1177,Aksu,CN,41.12,80.26,41.05,54,99,0.98,overcast clouds
1178,Tual,ID,-5.67,132.75,83.89,77,100,11.34,light rain
1179,Oxford,GB,51.75,-1.26,59.0,100,20,3.36,light rain
1180,Maumere,ID,-8.62,122.21,81.37,74,100,5.75,moderate rain
1181,Ryazanovskiy,RU,55.55,39.43,33.24,90,5,10.09,clear sky
1182,La Oroya,PE,-11.52,-75.9,58.8,34,51,12.91,broken clouds
1183,Ashland,US,40.82,-82.27,71.01,56,1,11.41,clear sky
1184,Lichinga,MZ,-13.31,35.24,78.8,41,20,10.29,few clouds
1185,Camopi,GF,3.17,-52.32,93.97,42,10,6.13,clear sky
1186,Iquitos,PE,-3.75,-73.25,80.6,78,75,2.24,broken clouds
1187,Obidos,BR,-1.92,-55.52,95.45,38,76,5.84,broken clouds
1188,Nyimba,ZM,-14.56,30.81,91.31,20,78,6.35,broken clouds
1189,Celestun,MX,20.87,-90.4,79.86,80,24,13.65,light rain
1190,Arrifes,PT,37.77,-25.7,66.2,63,75,13.87,broken clouds
1191,Kumluca,TR,36.37,30.29,68.99,48,0,6.06,clear sky
1192,El Tigre,VE,8.89,-64.25,84.88,64,90,7.38,light rain
1193,Lipin Bor,RU,60.26,37.98,35.51,93,100,19.24,overcast clouds
1194,Wajima,JP,37.4,136.9,46.89,80,99,15.17,light rain
1195,Pokhvistnevo,RU,53.65,52.13,35.26,72,97,4.74,overcast clouds
1196,Murfreesboro,US,35.85,-86.39,78.01,57,40,16.11,scattered clouds
1197,Monroe,US,43.15,-77.68,70.0,45,6,1.01,clear sky
1198,Izumo,JP,35.37,132.77,51.8,57,75,9.17,broken clouds
1199,Tautira,PF,-17.73,-149.15,71.6,100,75,2.24,light rain
1200,Luena,AO,-11.78,19.92,76.15,55,57,3.33,broken clouds
1201,Pucallpa,PE,-8.38,-74.55,87.8,58,75,4.09,broken clouds
1202,Inuvik,CA,68.35,-133.72,-4.0,83,100,5.82,overcast clouds
1203,San Matias,BO,-16.37,-58.4,89.87,43,100,11.59,moderate rain
1204,Thessalon,CA,46.25,-83.57,64.4,59,75,8.05,broken clouds
1205,Polis,CY,35.04,32.43,68.0,64,20,2.24,few clouds
1206,Naspur,IN,18.83,79.45,65.03,55,0,4.27,clear sky
1207,Puerto Penasco,MX,31.32,-113.53,63.0,35,94,5.99,overcast clouds
1208,Villazon,BO,-22.09,-65.59,66.25,23,0,8.32,clear sky
1209,Nalut,LY,30.33,10.85,66.0,34,2,8.7,clear sky
1210,Coahuayana,MX,18.73,-103.68,77.0,69,5,2.75,clear sky
1211,Ambon,ID,-3.7,128.18,78.01,15,95,4.47,overcast clouds
1212,Kortkeros,RU,61.81,51.58,32.0,99,75,6.71,broken clouds
1213,Mareeba,AU,-17.0,145.43,73.4,88,75,4.7,broken clouds
1214,Saint-Francois,FR,46.42,3.91,57.99,82,0,3.36,clear sky
1215,Yichun,CN,47.7,128.9,7.25,92,0,4.56,clear sky
1216,Yabrud,SY,33.97,36.66,55.4,76,0,6.93,clear sky
1217,Xiuyan,CN,40.29,123.27,33.17,79,0,2.46,clear sky
1218,Mezhdurechensk,RU,53.69,88.06,34.09,89,74,5.37,broken clouds
1219,Orlik,RU,52.52,99.83,21.47,82,82,2.57,broken clouds
1220,Nyurba,RU,63.28,118.33,13.26,96,100,8.16,light snow
1221,Tamale,GH,9.4,-0.84,92.19,26,89,4.43,overcast clouds
1222,Maningrida,AU,-12.07,134.27,79.02,81,95,5.66,overcast clouds
1223,Mlonggo,ID,-6.53,110.7,80.4,77,100,1.25,light rain
1224,Kingman,US,35.19,-114.05,45.0,69,1,4.7,clear sky
1225,Inhambane,MZ,-23.86,35.38,86.0,66,0,6.93,clear sky
1226,Lady Frere,ZA,-31.7,27.23,53.78,82,100,11.79,overcast clouds
1227,Lithgow,AU,-33.48,150.15,50.0,91,3,1.12,clear sky
1228,Griffith,US,41.53,-87.42,73.99,60,1,20.8,clear sky
1229,Aitape,PG,-3.14,142.35,79.11,78,100,1.59,overcast clouds
1230,Ayna,PE,-12.65,-73.92,75.2,25,20,3.36,few clouds
1231,Timizart,DZ,36.8,4.27,62.56,82,96,2.06,overcast clouds
1232,Opmeer,NL,52.71,4.94,55.99,90,70,5.08,broken clouds
1233,Conceicao Do Araguaia,BR,-8.26,-49.26,92.59,48,64,3.96,broken clouds
1234,Beira,MZ,-19.84,34.84,82.4,78,20,17.22,few clouds
1235,Pervoavgustovskiy,RU,52.23,35.06,37.38,78,18,5.99,few clouds
1236,Kawhia,NZ,-38.07,174.82,50.0,89,100,1.01,overcast clouds
1237,Newport,GB,51.59,-3.0,59.0,97,96,10.09,overcast clouds
1238,Koslan,RU,63.46,48.9,30.56,96,100,8.05,overcast clouds
1239,Aleksandrovka,UA,46.84,32.76,46.4,93,90,8.95,overcast clouds
1240,Nouakchott,MR,18.09,-15.98,91.81,22,57,8.39,broken clouds
1241,Licata,IT,37.11,13.95,68.0,82,5,5.82,clear sky
1242,Caribou,US,46.86,-68.01,61.0,58,1,8.05,clear sky
1243,Ruiz,MX,21.95,-105.15,68.0,82,5,8.05,clear sky
1244,Muhos,FI,64.81,25.99,41.0,56,0,19.46,clear sky
1245,High Level,CA,58.52,-117.14,10.4,92,75,2.24,broken clouds
1246,Agua Verde,MX,22.9,-106.05,87.01,74,5,2.24,clear sky
1247,Ampanihy,MG,-24.7,44.75,84.78,31,13,4.12,few clouds
1248,Chaska,US,44.79,-93.6,64.99,77,90,24.16,light rain
1249,Barra Do Garcas,BR,-15.89,-52.26,96.4,33,94,6.82,overcast clouds
1250,Vieux Fort,LC,13.72,-60.95,80.6,88,75,8.05,broken clouds
1251,Sarahan,IN,31.52,77.8,45.9,51,3,3.42,clear sky
1252,Forio,IT,40.73,13.86,64.99,63,5,2.24,clear sky
1253,Kapoeta,SS,4.77,33.59,82.76,58,93,8.34,light rain
1254,Rundu,NA,-17.93,19.77,88.39,23,46,0.43,scattered clouds
1255,Takoradi,GH,4.88,-1.76,81.68,77,37,9.08,scattered clouds
1256,Opuwo,NA,-18.06,13.84,87.85,18,65,13.44,broken clouds
1257,Birjand,IR,32.87,59.22,55.4,32,0,4.52,clear sky
1258,Okitipupa,NG,6.5,4.78,80.2,82,87,5.77,overcast clouds
1259,Jibuti,DJ,11.5,42.5,82.4,74,1,9.17,clear sky
1260,Petropavlovskoye,RU,52.07,84.11,38.64,72,81,17.83,broken clouds
1261,Jinchang,CN,38.5,102.17,39.94,54,0,1.16,clear sky
1262,Rayong,TH,12.83,101.43,78.01,73,20,8.05,few clouds
1263,Duncan,US,34.5,-97.96,66.2,82,90,18.34,overcast clouds
1264,Bontang,ID,0.13,117.5,78.4,85,68,7.74,broken clouds
1265,Gorin,RU,51.2,136.67,11.61,84,87,3.18,overcast clouds
1266,Ginir,ET,7.13,40.7,58.39,80,5,3.98,clear sky
1267,Norton,ZW,-17.88,30.7,84.99,22,49,4.0,scattered clouds
1268,Chicama,PE,-7.84,-79.15,66.2,72,79,11.41,mist
1269,Ardmore,US,34.17,-97.14,72.0,68,90,13.87,overcast clouds
1270,Ostersund,SE,63.18,14.64,39.2,80,0,3.36,clear sky
1271,Bisira,PA,8.52,-81.71,67.6,95,51,3.89,light rain
1272,Shimoda,JP,34.67,138.95,54.91,65,39,14.36,scattered clouds
1273,Glendive,US,47.11,-104.71,19.0,85,90,16.11,mist
1274,Balykshi,KZ,47.07,51.87,46.4,87,75,6.71,mist
1275,Novikovo,RU,51.15,37.89,41.77,67,14,5.73,few clouds
1276,Santa Lucia,ES,27.91,-15.54,73.4,64,20,17.22,few clouds
1277,Santa Cruz De La Palma,ES,28.68,-17.76,71.6,68,75,5.82,broken clouds
1278,Hagere Hiywet,ET,8.98,37.85,58.42,47,40,6.98,scattered clouds
1279,Bushehr,IR,28.97,50.84,82.4,51,0,9.17,clear sky
1280,Bwanga,TZ,-3.03,31.76,68.2,79,88,5.84,overcast clouds
1281,La Grande,US,45.32,-118.09,25.0,73,1,8.05,clear sky
1282,Rudnogorsk,RU,57.26,103.75,30.67,98,100,3.62,overcast clouds
1283,Manggar,ID,-2.88,108.27,80.62,75,88,3.96,overcast clouds
1284,Kochubey,RU,44.39,46.58,50.74,72,0,6.55,clear sky
1285,Concordia,AR,-31.39,-58.02,69.8,73,40,11.41,scattered clouds
1286,Kaihua,CN,23.37,104.28,49.91,71,0,3.4,clear sky
1287,Bairiki,KI,1.33,172.98,80.6,74,20,5.82,few clouds
1288,Troitsko-Pechorsk,RU,62.71,56.2,26.02,98,93,4.14,overcast clouds
1289,Bratsk,RU,56.13,101.61,37.4,69,100,7.94,overcast clouds
1290,Phuket,TH,8.0,98.25,84.99,100,75,1.12,broken clouds
1291,Oriximina,BR,-1.77,-55.87,96.24,37,91,5.53,overcast clouds
1292,Bodden Town,KY,19.28,-81.25,81.0,88,75,12.75,broken clouds
1293,Valdivia,CL,-39.81,-73.25,66.2,63,75,10.29,broken clouds
1294,Hokitika,NZ,-42.72,170.97,46.98,79,0,4.74,clear sky
1295,Bell Ville,AR,-32.63,-62.69,71.01,81,89,11.01,overcast clouds
1296,Ust-Tsilma,RU,65.44,52.15,26.55,98,93,3.83,overcast clouds
1297,Oktyabrskoye,RU,43.06,44.74,42.8,70,0,8.95,clear sky
1298,Edzell,GB,56.81,-2.65,51.01,96,87,2.55,overcast clouds
1299,Bayan,CN,46.08,127.4,15.08,91,0,5.64,clear sky
1300,Nortelandia,BR,-14.45,-56.8,85.59,55,100,5.19,overcast clouds
1301,Tilichiki,RU,60.47,166.1,4.73,92,0,10.85,clear sky
1302,Kajaani,FI,64.23,27.73,37.4,64,75,12.75,broken clouds
1303,Verkhoyansk,RU,67.54,133.38,-26.82,80,0,1.97,clear sky
1304,Andros Town,BS,24.7,-77.77,84.2,74,40,20.8,scattered clouds
1305,Ulaangom,MN,49.98,92.07,25.93,95,80,4.23,broken clouds
1306,Cairns,AU,-16.92,145.77,73.4,88,75,4.7,broken clouds
1307,Pyaozerskiy,RU,65.83,31.17,35.91,83,78,14.65,broken clouds
1308,Olinda,BR,-8.01,-34.86,84.2,70,40,13.87,scattered clouds
1309,Tiznit,MA,29.58,-9.5,68.59,51,36,6.15,scattered clouds
1310,Lom Sak,TH,16.78,101.24,68.27,75,10,4.09,clear sky
1311,Yinchuan,CN,38.47,106.27,47.07,51,0,7.67,clear sky
1312,Chkalovskoye,RU,44.84,133.04,22.06,82,97,11.74,overcast clouds
1313,Bela Vista Do Paraiso,BR,-23.0,-51.19,95.0,30,40,16.11,moderate rain
1314,Bella Vista,US,36.43,-94.23,73.0,73,75,11.41,broken clouds
1315,Nueva Gorgona,PA,8.55,-79.87,84.2,78,40,3.36,scattered clouds
1316,Erzin,TR,36.96,36.2,75.0,45,60,6.46,broken clouds
1317,Manaure,CO,11.78,-72.44,85.06,65,11,7.83,few clouds
1318,Huambo,AO,-12.78,15.74,71.73,45,67,3.85,broken clouds
1319,Simbahan,PH,6.3,120.58,82.98,78,85,10.96,overcast clouds
1320,Kloulklubed,PW,7.04,134.26,75.2,94,75,4.7,broken clouds
1321,Chulman,RU,56.85,124.91,-9.15,86,43,2.06,scattered clouds
1322,Englewood,US,39.65,-104.99,37.99,74,90,11.41,overcast clouds
1323,Khuzdar,PK,27.74,66.64,60.89,24,0,5.64,clear sky
1324,Rock Sound,BS,24.9,-76.2,80.44,83,3,21.79,clear sky
1325,Gora,PL,51.67,16.53,45.0,99,92,7.92,overcast clouds
1326,Domoni,KM,-12.26,44.53,77.47,81,62,6.71,broken clouds
1327,Batagay-Alyta,RU,67.8,130.41,-17.1,85,0,2.62,clear sky
1328,Akom,CM,2.67,12.71,71.08,93,88,1.5,light rain
1329,Vanderhoof,CA,54.02,-124.02,26.37,95,100,8.48,snow
1330,Eichstatt,DE,48.88,11.18,37.4,100,90,3.36,fog
1331,Auki,SB,-8.77,160.7,78.33,81,49,2.39,scattered clouds
1332,Kuopio,FI,62.89,27.68,37.4,74,0,11.41,clear sky
1333,Atlantic City,US,39.36,-74.42,71.6,64,1,5.82,clear sky
1334,Gelemso,ET,8.82,40.52,64.24,44,46,6.11,scattered clouds
1335,Babu,CN,24.42,111.52,56.44,56,0,3.49,clear sky
1336,Nhulunbuy,AU,-12.23,136.77,78.8,83,60,8.43,broken clouds
1337,Canutama,BR,-6.53,-64.38,93.45,46,89,4.52,overcast clouds
1338,Barth,DE,54.36,12.72,44.01,86,75,9.17,mist
1339,Upata,VE,8.01,-62.4,84.54,62,65,4.32,broken clouds
1340,Coos Bay,US,43.37,-124.22,41.0,67,1,10.29,clear sky
1341,Nueva Loja,EC,0.08,-76.88,84.2,74,0,2.24,clear sky
1342,Tshane,BW,-24.02,21.87,82.13,34,70,8.66,light rain
1343,Kamyshevatskaya,RU,46.41,37.96,50.97,70,83,7.16,broken clouds
1344,Galle,LK,6.04,80.22,80.87,79,99,4.14,heavy intensity rain
1345,Manzanillo,CU,20.34,-77.12,85.57,69,9,6.08,clear sky
1346,Lamesa,US,32.74,-101.95,70.0,64,75,19.46,broken clouds
1347,Seymchan,RU,62.88,152.43,-4.45,88,100,3.85,overcast clouds
1348,Dubbo,AU,-32.25,148.62,57.2,71,0,14.99,clear sky
1349,Kattivakkam,IN,13.22,80.32,80.6,69,20,4.7,few clouds
1350,Iguguno,TZ,-4.57,34.63,76.24,45,86,8.55,overcast clouds
1351,Elliot Lake,CA,46.38,-82.63,60.8,67,20,8.05,few clouds
1352,Prince Rupert,CA,54.32,-130.32,42.8,93,90,11.41,light rain
1353,Isla Vista,US,34.41,-119.86,54.0,38,1,4.21,clear sky
1354,Cartagena,CO,10.4,-75.51,84.22,67,62,6.17,broken clouds
1355,Kropotkin,RU,45.44,40.58,50.41,80,6,4.18,clear sky
1356,Mahon,ES,39.89,4.27,66.2,82,40,1.12,scattered clouds
1357,Tatawin,TN,32.93,10.45,77.0,29,20,6.93,few clouds
1358,Rosarito,MX,32.33,-117.03,55.4,71,40,5.82,scattered clouds
1359,Mandera,KE,3.94,41.87,87.46,47,55,11.48,broken clouds
1360,Saint-Nazaire,FR,47.28,-2.2,59.0,87,40,8.05,scattered clouds
1361,Maba,CN,24.68,113.6,55.29,60,0,2.66,clear sky
1362,Hammelburg,DE,50.12,9.9,44.01,80,25,2.19,scattered clouds
1363,Santa Ines,BR,-3.67,-45.38,88.43,63,78,5.19,broken clouds
1364,Cangzhou,CN,38.32,116.87,46.44,46,0,4.45,clear sky
1365,Gorontalo,ID,0.54,123.06,73.98,80,97,1.81,overcast clouds
1366,Ahuimanu,US,21.44,-157.84,78.8,74,75,12.75,broken clouds
1367,Zapolyarnyy,RU,69.42,30.81,32.0,96,75,20.8,broken clouds
1368,Shenzhen,CN,22.55,114.07,75.0,53,100,8.41,light rain
1369,Anloga,GH,5.79,0.9,87.8,66,20,11.41,few clouds
1370,Edgewater,US,28.99,-80.9,75.99,100,90,20.8,mist
1371,Iracoubo,GF,5.48,-53.2,85.05,64,30,9.84,scattered clouds
1372,Mungaoli,IN,24.42,78.1,64.89,28,0,4.0,clear sky
1373,Savannah Bight,HN,16.45,-85.85,78.8,83,75,2.24,broken clouds
1374,Volksrust,ZA,-27.37,29.88,64.27,88,95,6.15,heavy intensity rain
1375,Agadez,NE,19.75,10.25,71.44,24,0,8.21,clear sky
1376,Iwaki,JP,37.05,140.88,46.99,63,68,3.0,broken clouds
1377,Kankaanpaa,FI,61.8,22.42,41.0,93,40,6.93,scattered clouds
1378,Gejiu,CN,23.31,103.16,45.57,88,0,4.36,clear sky
1379,Ambikapur,IN,23.12,83.2,58.64,63,0,2.77,clear sky
1380,Altus,US,34.64,-99.33,66.2,77,90,13.87,overcast clouds
1381,Dinkelsbuhl,DE,49.07,10.32,39.99,100,90,5.82,fog
1382,Saurimo,AO,-9.66,20.39,75.7,70,66,4.09,broken clouds
1383,Posse,BR,-14.09,-46.37,88.29,39,91,3.67,overcast clouds
1384,Mala Tokmachka,UA,47.54,35.89,44.6,87,75,4.47,broken clouds
1385,Kashi,CN,39.45,75.98,44.6,26,98,4.47,overcast clouds
1386,Patancheru,IN,17.53,78.27,69.8,55,0,4.7,haze
1387,Harrisonburg,US,38.45,-78.87,71.01,72,1,5.12,clear sky
1388,Kiunga,PG,-6.12,141.29,72.97,99,100,1.07,moderate rain
1389,Tagab,AF,34.85,69.65,48.2,26,65,3.36,broken clouds
1390,Kashan,IR,33.98,51.44,54.95,56,3,2.17,clear sky
1391,Alappuzha,IN,9.49,76.33,81.79,81,82,7.47,moderate rain
1392,Sumenep,ID,-7.02,113.87,82.81,74,100,4.03,overcast clouds
1393,Bourail,NC,-21.57,165.48,67.42,74,47,8.14,scattered clouds
1394,Khasan,RU,42.43,130.64,28.85,83,0,15.37,clear sky
1395,Businga,CD,3.33,20.88,73.15,94,59,3.36,light rain
1396,Sars,RU,56.55,57.14,28.94,98,100,11.83,overcast clouds
1397,Mbandaka,CD,0.05,18.26,69.48,97,100,7.02,heavy intensity rain
1398,Wum,CM,6.38,10.07,67.96,72,61,1.52,broken clouds
1399,Butembo,CD,0.15,29.28,58.93,97,94,2.51,overcast clouds
1400,Pozo Colorado,PY,-23.49,-58.8,96.51,38,93,4.63,overcast clouds
1401,Senanga,ZM,-16.12,23.27,85.33,27,77,5.7,broken clouds
1402,Esmeraldas,BR,-19.76,-44.31,93.2,38,75,4.7,broken clouds
1403,Tete,MZ,-16.16,33.59,105.8,19,40,11.41,scattered clouds
1404,Vicksburg,US,32.35,-90.88,73.4,88,90,4.7,overcast clouds
1405,Ullapool,GB,57.9,-5.16,48.0,37,39,1.01,scattered clouds
1406,Palaikastron,GR,35.2,26.25,62.01,89,100,8.01,overcast clouds
1407,Ruston,US,32.52,-92.64,75.2,69,75,6.93,broken clouds
1408,Merke,KZ,42.87,73.18,40.82,68,19,4.14,few clouds
1409,Kahuta,PK,33.59,73.39,60.01,62,92,4.7,smoke
1410,Venado Tuerto,AR,-33.75,-61.97,82.0,43,92,10.0,overcast clouds
1411,Fukumitsu,JP,36.55,136.87,46.99,85,100,1.99,light rain
1412,Taree,AU,-31.9,152.47,55.4,87,90,1.12,overcast clouds
1413,Tondano,ID,1.3,124.91,71.6,94,20,2.24,few clouds
1414,Karachi,PK,24.91,67.08,75.2,38,0,4.7,clear sky
1415,Dolores,AR,-36.31,-57.68,71.33,54,95,10.51,overcast clouds
1416,Breves,BR,-1.68,-50.48,91.98,49,30,5.79,scattered clouds
1417,Puerto Narino,CO,-3.77,-70.38,84.2,83,75,2.24,moderate rain
1418,Isfana,KG,39.84,69.53,46.4,87,20,15.66,few clouds
1419,Gambela,ET,8.25,34.58,78.66,65,1,2.75,clear sky
1420,Camana,PE,-16.62,-72.71,67.48,66,81,7.65,broken clouds
1421,Aripuana,BR,-9.17,-60.63,90.07,53,93,1.39,very heavy rain
1422,Havoysund,NO,71.0,24.66,39.2,64,75,20.8,light rain
1423,Kalemie,CD,-5.95,29.19,76.41,71,94,3.29,overcast clouds
1424,Amuntai,ID,-2.42,115.25,74.21,91,57,1.63,broken clouds
1425,Concarneau,FR,47.88,-3.92,57.2,93,75,4.7,broken clouds
1426,Staszow,PL,50.56,21.17,46.99,83,99,4.0,overcast clouds
1427,Mananjary,MG,-21.22,48.33,72.95,86,7,6.87,clear sky
1428,Sayat,TM,38.78,63.88,46.4,70,0,6.93,clear sky
1429,Monze,ZM,-16.28,27.48,84.36,20,64,5.46,broken clouds
1430,Derzhavinsk,KZ,51.1,66.32,35.37,91,100,15.9,overcast clouds
1431,Reconquista,AR,-29.15,-59.65,79.72,63,73,7.67,broken clouds
1432,Maridi,SS,4.92,29.47,71.31,71,33,3.29,scattered clouds
1433,Naklo Nad Notecia,PL,53.14,17.6,44.6,81,90,5.82,overcast clouds
1434,The Valley,AI,18.22,-63.06,86.0,79,40,19.46,scattered clouds
1435,Dubrovka,RU,53.69,33.51,33.98,88,80,7.0,broken clouds
1436,Fecamp,FR,49.76,0.37,59.0,82,90,6.93,moderate rain
1437,Sortavala,RU,61.71,30.69,39.2,74,60,12.97,broken clouds
1438,Pontes E Lacerda,BR,-15.23,-59.34,77.36,74,100,4.16,overcast clouds
1439,Pandrup,DK,57.22,9.68,48.0,90,100,1.99,overcast clouds
1440,Pokhara,NP,28.23,83.98,61.38,39,0,4.7,clear sky
1441,Dolores Hidalgo,MX,21.16,-100.93,70.0,51,25,3.0,scattered clouds
1442,Fort Saint James,CA,54.43,-124.25,25.48,94,100,7.92,snow
1443,Poli,TZ,-3.33,36.8,71.6,78,75,27.51,broken clouds
1444,Labytnangi,RU,66.66,66.42,12.67,96,100,1.3,overcast clouds
1445,Zhaodong,CN,46.08,125.98,14.0,78,0,4.47,clear sky
1446,Gondanglegi,ID,-7.75,112.01,77.76,80,100,10.74,overcast clouds
1447,Andilamena,MG,-17.02,48.58,61.45,92,84,5.77,broken clouds
1448,Dukhovshchina,RU,55.19,32.41,33.84,90,8,8.34,clear sky
1449,Tayu,ID,-6.54,111.05,80.74,75,100,3.22,overcast clouds
1450,Cruzeiro Do Sul,BR,-29.51,-51.99,72.0,86,100,3.56,light rain
1451,Nalgonda,IN,17.05,79.27,66.09,56,0,6.55,clear sky
1452,Kroonstad,ZA,-27.65,27.23,76.77,42,99,9.53,light rain
1453,Erenhot,CN,43.65,111.98,35.8,67,0,6.49,clear sky
1454,Kavali,IN,14.92,79.98,73.38,59,0,7.96,clear sky
1455,Tabuk,PH,17.42,121.44,73.27,87,100,3.89,light rain
1456,Erdenet,MN,49.03,104.08,30.15,88,0,5.1,clear sky
1457,Carutapera,BR,-1.2,-46.02,82.98,78,75,9.51,broken clouds
1458,Roblin,CA,51.23,-101.36,12.11,93,98,11.88,light snow
1459,Bukama,CD,-9.2,25.85,82.15,57,98,5.46,overcast clouds
1460,Acacias,CO,3.99,-73.76,80.85,74,82,5.19,broken clouds
1461,Raga,SS,8.46,25.68,80.82,32,17,3.29,few clouds
1462,Belyy Yar,RU,53.6,91.39,39.2,64,0,17.9,clear sky
1463,Manzhouli,CN,49.6,117.43,25.11,94,1,5.57,clear sky
1464,Tacoronte,ES,28.48,-16.41,69.01,72,40,8.05,scattered clouds
1465,Yerofey Pavlovich,RU,53.97,121.97,10.09,90,29,1.54,scattered clouds
1466,Acajutla,SV,13.59,-89.83,78.8,74,20,4.7,few clouds
1467,Elesbao Veloso,BR,-6.2,-42.14,96.53,32,25,7.43,scattered clouds
1468,Tutoia,BR,-2.76,-42.27,89.6,62,20,19.46,few clouds
1469,Ilorin,NG,8.5,4.55,87.39,30,100,5.66,overcast clouds
1470,Santarem,BR,-2.44,-54.71,89.6,59,20,11.41,few clouds
1471,Holly Springs,US,35.65,-78.83,75.0,73,13,1.01,few clouds
1472,Si Sa Ket,TH,14.83,104.33,73.99,71,98,11.97,overcast clouds
1473,Abnub,EG,27.27,31.15,75.2,44,0,13.87,clear sky
1474,Severo-Yeniseyskiy,RU,60.37,93.04,28.76,98,91,12.5,overcast clouds
1475,Langxiang,CN,46.95,128.88,6.76,92,0,3.42,clear sky
1476,Roald,NO,62.58,6.13,46.4,87,75,9.17,broken clouds
1477,Vredendal,ZA,-31.67,18.5,63.18,46,0,26.93,clear sky
1478,Yingkou,CN,40.66,122.23,38.43,65,0,5.82,clear sky
1479,Revda,RU,56.8,59.93,32.0,96,40,15.66,scattered clouds
1480,Malpe,IN,13.35,74.72,82.4,83,20,3.36,mist
1481,Rajapur,IN,25.38,81.15,67.33,28,0,1.45,clear sky
1482,Kungurtug,RU,50.6,97.52,26.19,87,66,2.84,broken clouds
1483,Aden,YE,12.78,45.04,80.04,77,0,12.19,clear sky
1484,Santa Rosa,PH,14.31,121.11,80.01,94,75,3.36,heavy intensity rain
1485,Akureyri,IS,65.68,-18.09,33.8,81,0,4.7,clear sky
1486,Whitianga,NZ,-36.83,175.7,55.0,95,85,1.99,moderate rain
1487,Carballo,ES,43.21,-8.69,59.0,82,20,4.7,few clouds
1488,Bemidji,US,47.47,-94.88,34.0,88,90,12.75,drizzle
1489,Bundaberg,AU,-24.85,152.35,61.0,77,78,6.93,broken clouds
1490,Talaya,RU,61.38,152.75,-5.96,89,97,3.58,overcast clouds
1491,San Rafael,AR,-34.62,-68.33,82.67,31,17,12.21,few clouds
1492,Billings,US,45.78,-108.5,17.6,67,90,11.41,overcast clouds
1493,Kallaste,EE,58.66,27.16,44.6,93,72,6.93,broken clouds
1494,Horizontina,BR,-27.63,-54.31,77.0,70,99,1.99,light rain
1495,Hurricane,US,37.18,-113.29,39.99,69,90,6.93,overcast clouds
1496,Ascension,US,30.22,-90.9,78.8,69,40,6.93,scattered clouds
1497,Langarud,IR,37.2,50.15,59.0,93,0,5.39,clear sky
1498,Suntar,RU,62.14,117.63,17.11,95,100,8.43,overcast clouds
1499,Kralendijk,BQ,12.15,-68.27,87.8,70,75,10.29,broken clouds
1500,Yanam,IN,16.73,82.22,82.4,69,0,4.7,haze
1501,Kangaba,ML,11.93,-8.42,93.72,19,5,4.43,clear sky
1502,Gwanda,ZW,-20.93,29.0,89.69,23,55,8.79,broken clouds
1503,Cotonou,BJ,6.37,2.42,86.0,74,40,10.29,scattered clouds
1504,Chumikan,RU,54.72,135.31,2.48,90,1,17.45,clear sky
1505,Gobabis,NA,-22.45,18.97,88.18,17,75,5.28,broken clouds
1506,Kon Tum,VN,14.35,108.0,65.64,92,100,3.78,overcast clouds
1507,Gornyy,RU,55.12,83.91,35.91,100,100,10.18,overcast clouds
1508,Maragogi,BR,-9.01,-35.22,79.9,78,55,13.78,broken clouds
1509,Beian,NO,63.66,9.57,44.6,87,75,12.75,light rain
1510,Dori,BF,14.04,-0.03,90.25,12,13,9.37,few clouds
1511,Tromso,NO,69.65,18.96,33.8,86,90,10.29,overcast clouds
1512,Belen,TR,36.49,36.22,64.4,68,40,1.12,scattered clouds
1513,Victoria Point,AU,-27.58,153.3,64.99,71,80,1.01,broken clouds
1514,Surman,LY,32.76,12.57,69.64,63,0,7.07,clear sky
1515,Umm Kaddadah,SD,13.6,26.69,82.72,21,17,9.66,few clouds
1516,Ihosy,MG,-22.4,46.12,70.48,68,4,11.92,clear sky
1517,Santa Isabel Do Rio Negro,BR,-0.41,-65.02,88.97,61,95,2.51,overcast clouds
1518,Mwinilunga,ZM,-11.74,24.43,80.38,30,84,2.66,broken clouds
1519,Guiratinga,BR,-16.35,-53.76,92.05,40,100,4.76,light rain
1520,Fengzhen,CN,40.44,113.15,33.22,76,33,0.63,scattered clouds
1521,Arukutti,IN,9.87,76.35,84.2,83,40,3.36,mist
1522,Krasnovishersk,RU,60.41,57.08,27.93,98,98,4.21,overcast clouds
1523,Kathu,TH,7.92,98.33,84.99,100,75,1.12,broken clouds
1524,Gaoua,BF,10.3,-3.25,91.09,20,90,5.21,overcast clouds
1525,Fengrun,CN,39.83,118.12,43.41,52,0,3.02,clear sky
1526,Porto Novo,BJ,6.5,2.6,86.0,74,40,10.29,scattered clouds
1527,Beinamar,TD,8.67,15.38,81.32,32,13,3.04,few clouds
1528,Kununurra,AU,-15.77,128.73,80.6,83,67,5.82,broken clouds
1529,Gold Coast,AU,-28.0,153.43,64.4,72,90,5.82,overcast clouds
1530,Moa,CU,20.66,-74.94,86.5,63,33,7.61,scattered clouds
1531,Kampot,KH,10.62,104.18,78.8,83,20,1.12,few clouds
1532,Sovetskiy,RU,61.36,63.58,28.89,94,88,9.19,overcast clouds
1533,Gaoual,GN,11.75,-13.2,93.36,31,0,0.67,clear sky
1534,Coron,PH,12.0,120.2,79.23,81,27,3.76,scattered clouds
1535,Kangundo,KE,-1.3,37.35,68.0,77,20,10.29,few clouds
1536,Hodmezovasarhely,HU,46.42,20.33,42.01,98,64,4.72,broken clouds
1537,Suez,EG,29.97,32.53,74.97,45,50,3.53,scattered clouds
1538,Porto Santo,PT,33.07,-16.34,66.2,68,40,9.17,scattered clouds
1539,Sabaudia,IT,41.3,13.03,61.0,82,0,5.28,clear sky
1540,Rio Tercero,AR,-32.17,-64.11,70.88,64,85,14.74,overcast clouds
1541,Acopiara,BR,-6.1,-39.45,93.2,34,54,8.75,broken clouds
1542,Makakilo City,US,21.35,-158.09,78.8,83,1,3.36,clear sky
1543,Semey,KZ,50.41,80.23,41.0,66,100,18.99,overcast clouds
1544,Ossora,RU,59.24,163.07,19.63,87,5,6.4,clear sky
1545,Jackson,US,42.42,-122.83,24.8,85,40,3.36,scattered clouds
1546,Lincoln,US,40.8,-96.67,68.0,77,90,23.04,overcast clouds
1547,Jam Sahib,PK,26.3,68.63,75.2,50,0,6.02,smoke
1548,Chissamba,AO,-12.17,17.33,70.99,60,35,7.49,scattered clouds
1549,Mattawa,US,46.74,-119.9,30.2,80,1,3.02,clear sky
1550,Manokwari,ID,-0.87,134.08,79.36,78,53,1.99,broken clouds
1551,Villa Rica,US,33.73,-84.92,70.0,73,90,11.41,overcast clouds
1552,Hearst,CA,49.68,-83.67,60.8,82,45,10.29,scattered clouds
1553,Danilov,RU,58.19,40.17,33.8,80,75,15.66,light rain
1554,Kamaishi,JP,39.27,141.88,38.89,71,4,10.69,clear sky
1555,Kizilskoye,RU,52.73,58.89,30.13,92,14,7.99,few clouds
1556,Umea,SE,63.83,20.26,36.0,80,0,4.7,clear sky
1557,Xingyi,CN,24.19,102.82,46.11,91,0,1.7,clear sky
1558,Felipe Carrillo Puerto,MX,19.58,-88.05,84.88,62,22,6.8,few clouds
1559,Mtama,TZ,-10.3,39.37,76.95,76,42,6.73,scattered clouds
1560,Hoquiam,US,46.98,-123.89,39.0,86,90,9.17,overcast clouds
1561,Eastbourne,GB,50.77,0.28,57.0,91,90,7.85,moderate rain
1562,Suarez,CO,2.95,-76.7,84.0,94,83,3.94,light rain
1563,Sao Jose Da Coroa Grande,BR,-8.9,-35.15,80.46,77,49,13.94,scattered clouds
1564,Pachino,IT,36.72,15.09,64.0,75,1,3.76,clear sky
1565,Northbridge,US,42.15,-71.65,73.0,40,0,4.25,clear sky
1566,Asosa,ET,10.07,34.53,65.34,70,0,4.23,clear sky
1567,Palatka,US,29.65,-81.64,81.0,91,100,8.99,overcast clouds
1568,Savalou,BJ,7.93,1.98,90.01,41,54,3.06,broken clouds
1569,Ekibastuz,KZ,51.67,75.37,39.29,80,100,25.61,moderate rain
1570,Chalmette,US,29.94,-89.96,77.0,69,1,14.99,clear sky
1571,North Platte,US,41.12,-100.77,28.4,79,90,16.11,overcast clouds
1572,Bumbuna,SL,9.05,-11.73,81.77,73,17,3.51,few clouds
1573,Manado,ID,1.49,124.85,71.6,94,20,2.24,few clouds
1574,Payo,ID,-3.75,103.64,74.77,95,100,1.81,light rain
1575,Caldwell,US,43.66,-116.69,30.2,74,90,8.05,overcast clouds
1576,Olga,RU,43.74,135.29,23.77,83,0,6.82,clear sky
1577,Bayonet Point,US,28.33,-82.68,82.99,73,98,21.36,overcast clouds
1578,Nanzhang,CN,31.78,111.84,57.07,47,0,4.09,clear sky
1579,Palimbang,PH,6.21,124.19,79.12,69,70,3.31,broken clouds
1580,Berbera,SO,10.44,45.01,81.16,76,3,9.22,clear sky
1581,Paramirim,BR,-13.44,-42.24,86.95,37,53,7.61,broken clouds
1582,Tiruttani,IN,13.18,79.61,80.6,65,20,4.88,few clouds
1583,Strelka,RU,58.07,93.03,34.41,89,100,8.95,overcast clouds
1584,Balabac,PH,7.99,117.06,80.73,80,26,3.96,light rain
1585,Chadiza,ZM,-14.07,32.44,84.07,30,47,8.32,scattered clouds
1586,Soure,BR,-0.72,-48.52,86.02,65,80,12.44,broken clouds
1587,Amet,IN,25.3,73.93,68.38,25,0,0.89,clear sky
1588,Kirkwood,US,38.58,-90.41,73.99,64,40,12.75,scattered clouds
1589,Ramban,IN,33.25,75.25,53.65,38,87,4.52,overcast clouds
1590,Poya,NC,-21.35,165.15,68.13,76,57,8.9,broken clouds
1591,Copiapo,CL,-27.37,-70.33,59.0,77,90,5.82,overcast clouds
1592,Great Falls,US,47.5,-111.3,19.0,72,40,26.4,haze
1593,Skovorodino,RU,53.98,123.92,5.25,91,45,1.54,scattered clouds
1594,Toktogul,KG,41.87,72.94,43.65,73,98,1.03,overcast clouds
1595,Green River,US,41.53,-109.47,24.8,85,90,5.82,overcast clouds
1596,Moranbah,AU,-22.0,148.05,64.49,80,0,13.85,clear sky
1597,Bhikangaon,IN,21.87,75.95,69.8,30,0,4.68,clear sky
1598,Atbasar,KZ,51.8,68.33,35.31,87,100,7.87,overcast clouds
1599,Mount Hagen,PG,-5.86,144.23,58.05,91,67,1.52,broken clouds
1600,Kuching,MY,1.55,110.33,75.2,94,40,3.6,scattered clouds
1601,Linqiong,CN,30.42,103.46,68.0,100,47,1.68,mist
1602,Xiaoweizhai,CN,26.19,107.51,49.19,60,0,3.67,clear sky
1603,Le Creusot,FR,46.81,4.42,57.99,80,12,1.99,few clouds
1604,Zaranj,AF,30.97,61.88,64.4,42,0,21.92,clear sky
1605,Salekhard,RU,66.53,66.6,13.66,97,100,3.06,overcast clouds
1606,Sungairaya,ID,0.7,108.9,77.94,84,100,3.74,overcast clouds
1607,Songea,TZ,-10.68,35.65,82.4,39,20,9.17,few clouds
1608,Innerleithen,GB,55.62,-3.06,51.01,10,64,1.99,broken clouds
1609,Kharan,PK,28.58,65.42,65.89,23,0,9.91,clear sky
1610,Srandakan,ID,-7.94,110.25,78.6,85,91,5.84,overcast clouds
1611,Brattleboro,US,42.85,-72.56,72.0,61,2,1.01,clear sky
1612,Ambovombe,MG,-25.17,46.08,76.26,62,0,9.33,clear sky
1613,Lamu,KE,-2.27,40.9,77.0,94,90,8.1,overcast clouds
1614,Zaltan,LY,32.95,11.87,69.46,65,0,7.76,clear sky
1615,Collie,AU,-33.37,116.15,54.0,69,47,7.78,scattered clouds
1616,Bonthe,SL,7.53,-12.51,82.74,73,62,8.08,light rain
1617,Pedernales,DO,18.04,-71.74,78.8,94,75,5.82,light rain
1618,Bruiu,RO,45.87,24.7,43.0,100,66,3.36,fog
1619,Povenets,RU,62.85,34.83,37.22,79,98,15.26,overcast clouds
1620,Brand-Erbisdorf,DE,50.87,13.33,44.01,84,0,6.89,clear sky
1621,Coronon,PH,6.88,125.45,78.8,88,75,3.36,broken clouds
1622,Zhaotong,CN,27.32,103.72,48.76,78,0,0.65,clear sky
1623,Sofiyivka,UA,48.05,33.87,46.4,70,90,2.24,overcast clouds
1624,Bani Walid,LY,31.76,13.99,66.43,49,0,8.84,clear sky
1625,Iquique,CL,-20.22,-70.14,68.0,60,40,13.87,scattered clouds
1626,Chimoio,MZ,-19.12,33.48,86.0,66,20,16.11,few clouds
1627,Voyvozh,RU,62.89,54.96,25.09,99,100,4.34,overcast clouds
1628,Verkhniye Sergi,RU,56.65,59.56,29.5,97,100,12.46,overcast clouds
1629,Kushiro,JP,42.98,144.37,34.81,87,61,6.24,broken clouds
1630,Sarmizegetusa,RO,45.52,22.78,47.62,69,89,1.34,overcast clouds
1631,Turukhansk,RU,65.82,87.98,20.39,97,100,12.86,light snow
1632,Les Escoumins,CA,48.11,-69.02,57.2,87,66,18.34,broken clouds
1633,Mae Sai,TH,20.43,99.88,68.0,94,0,2.48,clear sky
1634,Tondela,PT,40.52,-8.08,60.01,85,47,4.0,scattered clouds
1635,Hede,CN,33.77,120.25,49.03,68,0,4.18,clear sky
1636,Imeni Vorovskogo,RU,55.72,38.34,35.6,74,75,11.18,broken clouds
1637,Chone,EC,-0.68,-80.1,86.68,46,94,4.88,overcast clouds
1638,Chupaca,PE,-12.07,-75.28,64.53,33,77,1.41,broken clouds
1639,Chute-Aux-Outardes,CA,49.12,-68.4,37.4,86,90,8.05,overcast clouds
1640,Mingshui,CN,36.72,117.5,53.01,43,0,4.79,clear sky
1641,Lodja,CD,-3.48,23.43,72.39,96,100,0.25,moderate rain
1642,Ninghai,CN,29.29,121.42,54.0,74,0,3.96,clear sky
1643,Rorvik,NO,64.86,11.24,39.2,100,75,2.24,broken clouds
1644,Salinas,US,36.68,-121.66,50.0,86,1,6.93,clear sky
1645,Vikulovo,RU,56.82,70.61,30.06,98,98,9.64,overcast clouds
1646,Paso De Carrasco,UY,-34.86,-56.05,69.8,72,75,9.17,broken clouds
1647,Tricase,IT,39.93,18.36,61.0,87,20,8.05,few clouds
1648,Chunhuhub,MX,19.55,-88.68,84.78,59,17,6.4,few clouds
1649,Aginskoye,RU,51.1,114.53,28.72,92,0,2.48,clear sky
1650,Sibolga,ID,1.74,98.78,77.94,82,100,3.15,light rain
1651,Hidalgotitlan,MX,17.78,-94.63,80.6,78,40,2.68,scattered clouds
1652,Grayvoron,RU,50.48,35.68,45.25,87,75,6.71,light rain
1653,Fez,MA,34.04,-5.0,68.0,64,20,9.17,few clouds
1654,Octeville,FR,49.63,-1.64,59.0,93,75,6.93,broken clouds
1655,Alfreton,GB,53.1,-1.39,55.4,100,40,5.82,scattered clouds
1656,Cateel,PH,7.79,126.45,76.89,83,90,4.61,heavy intensity rain
1657,Niteroi,BR,-22.88,-43.1,84.2,88,75,8.05,broken clouds
1658,Mutis,CO,6.23,-77.4,78.98,78,100,5.57,light rain
1659,Jizan,SA,17.33,42.67,84.2,74,20,5.82,few clouds
1660,Atyrau,KZ,47.12,51.88,46.4,87,75,6.71,mist
1661,Miramar,US,25.99,-80.23,84.0,88,75,23.04,broken clouds
1662,Fort Frances,CA,48.6,-93.4,35.6,85,90,4.7,mist
1663,Kholtoson,RU,50.3,103.31,25.36,92,0,3.51,clear sky
1664,Fort-Shevchenko,KZ,44.51,50.26,51.91,77,0,8.41,clear sky
1665,Atherton,GB,53.52,-2.49,57.0,78,100,4.0,overcast clouds
1666,Dong Xoai,VN,11.53,106.92,74.08,79,100,4.65,moderate rain
1667,San Pedro Buenavista,MX,16.08,-93.12,77.0,73,20,4.7,few clouds
1668,Bozeman,US,45.68,-111.04,15.01,75,100,3.02,overcast clouds
1669,Polunochnoye,RU,60.87,60.42,27.43,92,100,7.63,overcast clouds
1670,Ostrovskoye,RU,57.81,42.24,31.42,98,70,9.95,snow
1671,Ushtobe,KZ,45.25,77.98,41.56,65,66,9.64,broken clouds
1672,Riverton,US,40.52,-111.94,32.0,100,90,19.46,overcast clouds
1673,Manoel Urbano,BR,-8.84,-69.26,93.04,46,100,3.71,overcast clouds
1674,Cacoal,BR,-11.44,-61.45,83.79,58,100,7.16,overcast clouds
1675,Salinopolis,BR,-0.61,-47.36,86.61,63,43,13.04,scattered clouds
1676,Castlegar,CA,49.3,-117.67,28.4,79,0,9.17,clear sky
1677,Pak Phanang,TH,8.35,100.2,79.2,82,85,7.0,overcast clouds
1678,Aksaray,TR,38.37,34.03,51.8,62,0,2.24,clear sky
1679,Santiago,CL,-33.46,-70.65,84.99,38,0,5.82,clear sky
